location_id,city,accent_city,latitude,longitude,country,country_code,population,region,sub_region,intermediate_region
0,tokyo,tokyo,35.6839,139.7744,japan,jp,39105000,asia,eastern asia,
1,jakarta,jakarta,-6.2146,106.8451,indonesia,id,35362000,asia,south-eastern asia,
2,delhi,delhi,28.6667,77.2167,india,in,31870000,asia,southern asia,
3,manila,manila,14.6,120.9833,philippines,ph,23971000,asia,south-eastern asia,
4,são paulo,sao paulo,-23.5504,-46.6339,brazil,br,22495000,americas,latin america and the caribbean,south america
5,seoul,seoul,37.56,126.99,south korea,kr,22394000,asia,eastern asia,
6,mumbai,mumbai,19.0758,72.8775,india,in,22186000,asia,southern asia,
7,shanghai,shanghai,31.1667,121.4667,china,cn,22118000,asia,eastern asia,
8,mexico city,mexico city,19.4333,-99.1333,mexico,mx,21505000,americas,latin america and the caribbean,central america
9,guangzhou,guangzhou,23.1288,113.259,china,cn,21489000,asia,eastern asia,
10,cairo,cairo,30.0444,31.2358,egypt,eg,19787000,africa,northern africa,
11,beijing,beijing,39.904,116.4075,china,cn,19437000,asia,eastern asia,
12,new york,new york,40.6943,-73.9249,united states,us,18713220,americas,northern america,
13,kolkāta,kolkata,22.5727,88.3639,india,in,18698000,asia,southern asia,
14,moscow,moscow,55.7558,37.6178,russia,ru,17693000,europe,eastern europe,
15,bangkok,bangkok,13.75,100.5167,thailand,th,17573000,asia,south-eastern asia,
16,dhaka,dhaka,23.7289,90.3944,bangladesh,bd,16839000,asia,southern asia,
17,buenos aires,buenos aires,-34.5997,-58.3819,argentina,ar,16216000,americas,latin america and the caribbean,south america
18,ōsaka,osaka,34.752,135.4582,japan,jp,15490000,asia,eastern asia,
19,lagos,lagos,6.45,3.4,nigeria,ng,15487000,africa,sub-saharan africa,western africa
20,istanbul,istanbul,41.01,28.9603,turkey,tr,15311000,asia,western asia,
21,karachi,karachi,24.86,67.01,pakistan,pk,15292000,asia,southern asia,
22,kinshasa,kinshasa,-4.3317,15.3139,congo (kinshasa),cd,15056000,africa,sub-saharan africa,middle africa
23,shenzhen,shenzhen,22.535,114.054,china,cn,14678000,asia,eastern asia,
24,bangalore,bangalore,12.9791,77.5913,india,in,13999000,asia,southern asia,
25,ho chi minh city,ho chi minh city,10.8167,106.6333,vietnam,vn,13954000,asia,south-eastern asia,
26,tehran,tehran,35.7,51.4167,iran,ir,13819000,asia,southern asia,
27,los angeles,los angeles,34.1139,-118.4068,united states,us,12750807,americas,northern america,
28,rio de janeiro,rio de janeiro,-22.9083,-43.1964,brazil,br,12486000,americas,latin america and the caribbean,south america
29,chengdu,chengdu,30.66,104.0633,china,cn,11920000,asia,eastern asia,
30,baoding,baoding,38.8671,115.4845,china,cn,11860000,asia,eastern asia,
31,chennai,chennai,13.0825,80.275,india,in,11564000,asia,southern asia,
32,lahore,lahore,31.5497,74.3436,pakistan,pk,11148000,asia,southern asia,
33,london,london,51.5072,-0.1275,united kingdom,gb,11120000,europe,northern europe,
34,paris,paris,48.8566,2.3522,france,fr,11027000,europe,western europe,
35,tianjin,tianjin,39.1467,117.2056,china,cn,10932000,asia,eastern asia,
36,linyi,linyi,35.0606,118.3425,china,cn,10820000,asia,eastern asia,
37,shijiazhuang,shijiazhuang,38.0422,114.5086,china,cn,10784600,asia,eastern asia,
38,zhengzhou,zhengzhou,34.7492,113.6605,china,cn,10136000,asia,eastern asia,
39,nanyang,nanyang,32.9987,112.5292,china,cn,10013600,asia,eastern asia,
40,hyderābād,hyderabad,17.3617,78.4747,india,in,9840000,asia,southern asia,
41,wuhan,wuhan,30.5872,114.2881,china,cn,9729000,asia,eastern asia,
42,handan,handan,36.6116,114.4894,china,cn,9549700,asia,eastern asia,
43,nagoya,nagoya,35.1167,136.9333,japan,jp,9522000,asia,eastern asia,
44,weifang,weifang,36.7167,119.1,china,cn,9373000,asia,eastern asia,
45,lima,lima,-12.06,-77.0375,peru,pe,8992000,americas,latin america and the caribbean,south america
46,zhoukou,zhoukou,33.625,114.6418,china,cn,8953172,asia,eastern asia,
47,luanda,luanda,-8.8383,13.2344,angola,ao,8883000,africa,sub-saharan africa,middle africa
48,ganzhou,ganzhou,25.8292,114.9336,china,cn,8677600,asia,eastern asia,
49,tongshan,tongshan,34.261,117.1859,china,cn,8669000,asia,eastern asia,
50,kuala lumpur,kuala lumpur,3.1478,101.6953,malaysia,my,8639000,asia,south-eastern asia,
51,chicago,chicago,41.8373,-87.6862,united states,us,8604203,americas,northern america,
52,heze,heze,35.2333,115.4333,china,cn,8287693,asia,eastern asia,
53,chongqing,chongqing,29.55,106.5069,china,cn,8261000,asia,eastern asia,
54,hanoi,hanoi,21.0245,105.8412,vietnam,vn,8246600,asia,south-eastern asia,
55,fuyang,fuyang,32.8986,115.8045,china,cn,8200264,asia,eastern asia,
56,changsha,changsha,28.1987,112.9709,china,cn,8154700,asia,eastern asia,
57,dongguan,dongguan,23.0475,113.7493,china,cn,8142000,asia,eastern asia,
58,jining,jining,35.4,116.5667,china,cn,8081905,asia,eastern asia,
59,jinan,jinan,36.6667,116.9833,china,cn,7967400,asia,eastern asia,
60,pune,pune,18.5196,73.8553,india,in,7948000,asia,southern asia,
61,foshan,foshan,23.0292,113.1056,china,cn,7905700,asia,eastern asia,
62,bogotá,bogota,4.6126,-74.0705,colombia,co,7743955,americas,latin america and the caribbean,south america
63,ahmedabad,ahmedabad,23.03,72.58,india,in,7717000,asia,southern asia,
64,nanjing,nanjing,32.05,118.7667,china,cn,7729000,asia,eastern asia,
65,changchun,changchun,43.9,125.2,china,cn,7674439,asia,eastern asia,
66,tangshan,tangshan,39.6292,118.1742,china,cn,7577289,asia,eastern asia,
67,cangzhou,cangzhou,38.3037,116.8452,china,cn,7544300,asia,eastern asia,
68,dar es salaam,dar es salaam,-6.8,39.2833,tanzania,tz,7461000,africa,sub-saharan africa,eastern africa
69,hefei,hefei,31.8639,117.2808,china,cn,7457027,asia,eastern asia,
70,hong kong,hong kong,22.3069,114.1831,hong kong,hk,7398000,asia,eastern asia,
71,shaoyang,shaoyang,27.2418,111.4725,china,cn,7370500,asia,eastern asia,
72,zhanjiang,zhanjiang,21.1967,110.4031,china,cn,7332000,asia,eastern asia,
73,shangqiu,shangqiu,34.4259,115.6467,china,cn,7325300,asia,eastern asia,
74,nantong,nantong,31.9829,120.8873,china,cn,7283622,asia,eastern asia,
75,yancheng,yancheng,33.3936,120.1339,china,cn,7260240,asia,eastern asia,
76,nanning,nanning,22.8192,108.315,china,cn,7254100,asia,eastern asia,
77,hengyang,hengyang,26.8968,112.5857,china,cn,7243400,asia,eastern asia,
78,zhumadian,zhumadian,32.9773,114.0253,china,cn,7231234,asia,eastern asia,
79,shenyang,shenyang,41.8039,123.4258,china,cn,7208000,asia,eastern asia,
80,xingtai,xingtai,37.0659,114.4753,china,cn,7104103,asia,eastern asia,
81,xi’an,xi'an,34.2667,108.9,china,cn,7090000,asia,eastern asia,
82,santiago,santiago,-33.45,-70.6667,chile,cl,7026000,americas,latin america and the caribbean,south america
83,yantai,yantai,37.3997,121.2664,china,cn,6968202,asia,eastern asia,
84,riyadh,riyadh,24.65,46.71,saudi arabia,sa,6889000,asia,western asia,
85,luoyang,luoyang,34.6587,112.4245,china,cn,6888500,asia,eastern asia,
86,kunming,kunming,25.0433,102.7061,china,cn,6850000,asia,eastern asia,
87,shangrao,shangrao,28.4419,117.9633,china,cn,6810700,asia,eastern asia,
88,hangzhou,hangzhou,30.25,120.1675,china,cn,6713000,asia,eastern asia,
89,bijie,bijie,27.3019,105.2863,china,cn,6686100,asia,eastern asia,
90,quanzhou,quanzhou,24.9139,118.5858,china,cn,6480000,asia,eastern asia,
91,miami,miami,25.7839,-80.2102,united states,us,6445545,americas,northern america,
92,wuxi,wuxi,31.5667,120.2833,china,cn,6372624,asia,eastern asia,
93,huanggang,huanggang,30.45,114.875,china,cn,6333000,asia,eastern asia,
94,maoming,maoming,21.6618,110.9178,china,cn,6313200,asia,eastern asia,
95,nanchong,nanchong,30.7991,106.0784,china,cn,6278614,asia,eastern asia,
96,zunyi,zunyi,27.705,106.9336,china,cn,6270700,asia,eastern asia,
97,qujing,qujing,25.5102,103.8029,china,cn,6155400,asia,eastern asia,
98,baghdad,baghdad,33.35,44.4167,iraq,iq,6107000,asia,western asia,
99,xinyang,xinyang,32.1264,114.0672,china,cn,6109106,asia,eastern asia,
100,jieyang,jieyang,23.5533,116.3649,china,cn,6089400,asia,eastern asia,
101,khartoum,khartoum,15.6031,32.5265,sudan,sd,6017000,africa,northern africa,
102,madrid,madrid,40.4167,-3.7167,spain,es,6006000,europe,southern europe,
103,allahābād,allahabad,25.45,81.85,india,in,5954391,asia,southern asia,
104,yulin,yulin,22.6293,110.1507,china,cn,5849700,asia,eastern asia,
105,changde,changde,29.0397,111.6839,china,cn,5827200,asia,eastern asia,
106,liaocheng,liaocheng,36.45,115.9833,china,cn,5789863,asia,eastern asia,
107,qingdao,qingdao,36.1167,120.4,china,cn,5775000,asia,eastern asia,
108,dallas,dallas,32.7936,-96.7662,united states,us,5743938,americas,northern america,
109,nangandao,nangandao,35.2992,113.8851,china,cn,5708191,asia,eastern asia,
110,xiangyang,xiangyang,32.0654,112.1531,china,cn,5680000,asia,eastern asia,
111,philadelphia,philadelphia,40.0077,-75.1339,united states,us,5649300,americas,northern america,
112,giza,giza,29.987,31.2118,egypt,eg,5598402,africa,northern africa,
113,lu’an,lu'an,31.7542,116.5078,china,cn,5611701,asia,eastern asia,
114,zhaotong,zhaotong,27.3328,103.7144,china,cn,5591000,asia,eastern asia,
115,yichun,yichun,27.8041,114.383,china,cn,5573200,asia,eastern asia,
116,dezhou,dezhou,37.4513,116.3105,china,cn,5568235,asia,eastern asia,
117,nairobi,nairobi,-1.2864,36.8172,kenya,ke,5545000,africa,sub-saharan africa,eastern africa
118,nanchang,nanchang,28.6842,115.8872,china,cn,5545500,asia,eastern asia,
119,tai’an,tai'an,36.2001,117.0809,china,cn,5494207,asia,eastern asia,
120,dazhou,dazhou,31.2152,107.4947,china,cn,5468097,asia,eastern asia,
121,houston,houston,29.7863,-95.3889,united states,us,5464251,americas,northern america,
122,guadalajara,guadalajara,20.6767,-103.3475,mexico,mx,5437000,americas,latin america and the caribbean,central america
123,yongzhou,yongzhou,26.4515,111.5953,china,cn,5452100,asia,eastern asia,
124,atlanta,atlanta,33.7627,-84.4224,united states,us,5449398,americas,northern america,
125,rangoon,rangoon,16.795,96.16,myanmar,mm,5430000,asia,south-eastern asia,
126,toronto,toronto,43.7417,-79.3733,canada,ca,5429524,americas,northern america,
127,suihua,suihua,46.6384,126.9808,china,cn,5418153,asia,eastern asia,
128,saint petersburg,saint petersburg,59.95,30.3167,russia,ru,5384342,europe,eastern europe,
129,washington,washington,38.9047,-77.0163,united states,us,5379184,americas,northern america,
130,qiqihar,qiqihar,47.3398,123.9512,china,cn,5367003,asia,eastern asia,
131,suzhou,suzhou,33.6333,116.9683,china,cn,5352924,asia,eastern asia,
132,shantou,shantou,23.3735,116.6941,china,cn,5319028,asia,eastern asia,
133,weinan,weinan,34.4996,109.4684,china,cn,5286077,asia,eastern asia,
134,changzhou,changzhou,31.8122,119.9692,china,cn,5278121,asia,eastern asia,
135,singapore,singapore,1.3,103.8,singapore,sg,5271000,asia,south-eastern asia,
136,fuzhou,fuzhou,26.0769,119.2917,china,cn,5245000,asia,eastern asia,
137,pudong,pudong,31.2231,121.5397,china,cn,5187200,asia,eastern asia,
138,belo horizonte,belo horizonte,-19.9281,-43.9419,brazil,br,5159000,americas,latin america and the caribbean,south america
139,zhangzhou,zhangzhou,24.5093,117.6612,china,cn,5140000,asia,eastern asia,
140,yuncheng,yuncheng,35.0304,110.998,china,cn,5134779,asia,eastern asia,
141,suzhou,suzhou,31.304,120.6164,china,cn,5103000,asia,eastern asia,
142,xianyang,xianyang,34.35,108.7167,china,cn,5096001,asia,eastern asia,
143,guilin,guilin,25.2667,110.2833,china,cn,5085500,asia,eastern asia,
144,taizhou,taizhou,32.4831,119.9,china,cn,5031000,asia,eastern asia,
145,abidjan,abidjan,5.3364,-4.0267,côte d'ivoire,ci,4980000,africa,sub-saharan africa,western africa
146,huaihua,huaihua,27.5494,109.9592,china,cn,4979600,asia,eastern asia,
147,ji’an,ji'an,27.1172,114.9793,china,cn,4956600,asia,eastern asia,
148,xiaoganzhan,xiaoganzhan,30.9273,113.911,china,cn,4921000,asia,eastern asia,
149,pingdingshan,pingdingshan,33.735,113.2999,china,cn,4904701,asia,eastern asia,
150,jiujiang,jiujiang,29.7048,116.0021,china,cn,4896800,asia,eastern asia,
151,sūrat,surat,21.17,72.83,india,in,4875000,asia,southern asia,
152,guiyang,guiyang,26.5794,106.7078,china,cn,4881900,asia,eastern asia,
153,alexandria,alexandria,31.2,29.9167,egypt,eg,4870000,africa,northern africa,
154,bozhou,bozhou,33.8626,115.7742,china,cn,4850657,asia,eastern asia,
155,sydney,sydney,-33.865,151.2094,australia,au,4840600,oceania,australia and new zealand,
156,huizhou,huizhou,23.1115,114.4152,china,cn,4830000,asia,eastern asia,
157,huai’an,huai'an,33.5,119.1331,china,cn,4799889,asia,eastern asia,
158,chenzhou,chenzhou,25.7989,113.0267,china,cn,4744500,asia,eastern asia,
159,barcelona,barcelona,41.3825,2.1769,spain,es,4735000,europe,southern europe,
160,anqing,anqing,30.5,117.0333,china,cn,4723000,asia,eastern asia,
161,suqian,suqian,33.9331,118.2831,china,cn,4719178,asia,eastern asia,
162,boston,boston,42.3188,-71.0846,united states,us,4688346,americas,northern america,
163,jiangmen,jiangmen,22.5833,113.0833,china,cn,4630300,asia,eastern asia,
164,mianyang,mianyang,31.4669,104.7385,china,cn,4613862,asia,eastern asia,
165,harbin,harbin,45.75,126.6333,china,cn,4583000,asia,eastern asia,
166,huanglongsi,huanglongsi,34.7936,114.3403,china,cn,4564900,asia,eastern asia,
167,melbourne,melbourne,-37.8136,144.9631,australia,au,4529500,oceania,australia and new zealand,
168,zibo,zibo,36.7831,118.0497,china,cn,4530597,asia,eastern asia,
169,dalian,dalian,38.9,121.6,china,cn,4480000,asia,eastern asia,
170,hengshui,hengshui,37.7348,115.686,china,cn,4472000,asia,eastern asia,
171,yibin,yibin,28.7596,104.64,china,cn,4471896,asia,eastern asia,
172,yangzhou,yangzhou,32.3912,119.4363,china,cn,4459760,asia,eastern asia,
173,timbío,timbio,2.3528,-76.6819,colombia,co,4444444,americas,latin america and the caribbean,south america
174,johannesburg,johannesburg,-26.2044,28.0416,south africa,za,4434827,africa,sub-saharan africa,southern africa
175,yiyang,yiyang,28.5833,112.3333,china,cn,4413800,asia,eastern asia,
176,guigang,guigang,23.0961,109.6092,china,cn,4409200,asia,eastern asia,
177,xinpu,xinpu,34.5906,119.1801,china,cn,4393482,asia,eastern asia,
178,meizhou,meizhou,24.2998,116.1191,china,cn,4378800,asia,eastern asia,
179,casablanca,casablanca,33.5992,-7.62,morocco,ma,4370000,africa,northern africa,
180,langfang,langfang,39.5196,116.7006,china,cn,4358839,asia,eastern asia,
181,zhangjiakou,zhangjiakou,40.8108,114.8811,china,cn,4345485,asia,eastern asia,
182,chifeng,chifeng,42.2663,118.9223,china,cn,4341245,asia,eastern asia,
183,linfen,linfen,36.0812,111.5087,china,cn,4316610,asia,eastern asia,
184,jiangguanchi,jiangguanchi,34.0244,113.8201,china,cn,4307488,asia,eastern asia,
185,kabul,kabul,34.5328,69.1658,afghanistan,af,4273156,asia,southern asia,
186,phoenix,phoenix,33.5722,-112.0891,united states,us,4219697,americas,northern america,
187,luzhou,luzhou,28.8918,105.4409,china,cn,4218427,asia,eastern asia,
188,taiyuan,taiyuan,37.8733,112.5425,china,cn,4201592,asia,eastern asia,
189,zhaoqing,zhaoqing,23.05,112.4667,china,cn,4151700,asia,eastern asia,
190,xiaoxita,xiaoxita,30.7083,111.2803,china,cn,4137900,asia,eastern asia,
191,xiamen,xiamen,24.4797,118.0819,china,cn,4110000,asia,eastern asia,
192,fuzhou,fuzhou,27.9814,116.3577,china,cn,4047200,asia,eastern asia,
193,liuzhou,liuzhou,24.3264,109.4281,china,cn,4041700,asia,eastern asia,
194,zhuzhou,zhuzhou,27.8407,113.1469,china,cn,4020800,asia,eastern asia,
195,amman,amman,31.95,35.9333,jordan,jo,4007526,asia,western asia,
196,jeddah,jeddah,21.5428,39.1728,saudi arabia,sa,3976000,asia,western asia,
197,chuzhou,chuzhou,32.3062,118.3115,china,cn,3937868,asia,eastern asia,
198,loudi,loudi,27.7378,111.9974,china,cn,3931800,asia,eastern asia,
199,deyang,deyang,31.1289,104.395,china,cn,3877000,asia,eastern asia,
200,qingyuan,qingyuan,23.6842,113.0507,china,cn,3874000,asia,eastern asia,
201,kano,kano,12,8.5167,nigeria,ng,3848885,africa,sub-saharan africa,western africa
202,wuhu,wuhu,31.334,118.3622,china,cn,3842100,asia,eastern asia,
203,seattle,seattle,47.6211,-122.3244,united states,us,3789215,americas,northern america,
204,yokohama,yokohama,35.4333,139.6333,japan,jp,3757630,asia,eastern asia,
205,binzhou,binzhou,37.3806,118.0125,china,cn,3748474,asia,eastern asia,
206,baojishi,baojishi,34.3609,107.1751,china,cn,3738700,asia,eastern asia,
207,zaozhuang,zaozhuang,34.8667,117.55,china,cn,3729140,asia,eastern asia,
208,neijiang,neijiang,29.5872,105.0635,china,cn,3702847,asia,eastern asia,
209,baicheng,baicheng,23.901,106.6194,china,cn,3669400,asia,eastern asia,
210,berlin,berlin,52.5167,13.3833,germany,de,3664088,europe,western europe,
211,anshan,anshan,41.1066,122.9895,china,cn,3645884,asia,eastern asia,
212,lanzhou,lanzhou,36.0617,103.8318,china,cn,3616163,asia,eastern asia,
213,puyang,puyang,35.7639,115.03,china,cn,3598740,asia,eastern asia,
214,san francisco,san francisco,37.7562,-122.443,united states,us,3592294,americas,northern america,
215,jiaozuo,jiaozuo,35.229,113.2304,china,cn,3590700,asia,eastern asia,
216,hechi,hechi,24.6928,108.085,china,cn,3545700,asia,eastern asia,
217,montréal,montreal,45.5089,-73.5617,canada,ca,3519595,americas,northern america,
218,detroit,detroit,42.3834,-83.1024,united states,us,3506126,americas,northern america,
219,chengde,chengde,40.9739,117.9322,china,cn,3473201,asia,eastern asia,
220,busan,busan,35.1,129.0403,south korea,kr,3453198,asia,eastern asia,
221,algiers,algiers,36.7764,3.0586,algeria,dz,3415811,africa,northern africa,
222,hanzhong,hanzhong,33.0794,107.026,china,cn,3416196,asia,eastern asia,
223,shiyan,shiyan,32.6351,110.7755,china,cn,3398000,asia,eastern asia,
224,lucknow,lucknow,26.847,80.947,india,in,3382000,asia,southern asia,
225,siping,siping,43.1715,124.3644,china,cn,3385156,asia,eastern asia,
226,yulinshi,yulinshi,38.2655,109.7388,china,cn,3351436,asia,eastern asia,
227,changzhi,changzhi,36.1953,113.097,china,cn,3334565,asia,eastern asia,
228,qinzhou,qinzhou,21.95,108.6167,china,cn,3304400,asia,eastern asia,
229,bazhou,bazhou,31.8576,106.7559,china,cn,3283148,asia,eastern asia,
230,qincheng,qincheng,34.5809,105.7311,china,cn,3262549,asia,eastern asia,
231,zhongshan,zhongshan,22.5333,113.35,china,cn,3260000,asia,eastern asia,
232,suining,suining,30.5098,105.5737,china,cn,3252619,asia,eastern asia,
233,leshan,leshan,29.5854,103.7575,china,cn,3235759,asia,eastern asia,
234,san diego,san diego,32.8312,-117.1225,united states,us,3220118,americas,northern america,
235,faisalabad,faisalabad,31.418,73.079,pakistan,pk,3203846,asia,southern asia,
236,guang’an,guang'an,30.4673,106.6336,china,cn,3205476,asia,eastern asia,
237,tongren,tongren,27.7233,109.1885,china,cn,3168800,asia,eastern asia,
238,bengbu,bengbu,32.9354,117.3531,china,cn,3164467,asia,eastern asia,
239,santa cruz,santa cruz,-17.7892,-63.1975,bolivia,bo,3151676,americas,latin america and the caribbean,south america
240,qinhuangdao,qinhuangdao,39.9398,119.5881,china,cn,3146300,asia,eastern asia,
241,tongliao,tongliao,43.6172,122.264,china,cn,3139153,asia,eastern asia,
242,jinzhou,jinzhou,41.1144,121.1292,china,cn,3126463,asia,eastern asia,
243,zhenjiang,zhenjiang,32.2109,119.4551,china,cn,3113384,asia,eastern asia,
244,ürümqi,urumqi,43.8225,87.6125,china,cn,3112559,asia,eastern asia,
245,heyuan,heyuan,23.7503,114.6923,china,cn,3093900,asia,eastern asia,
246,jaipur,jaipur,26.9167,75.8667,india,in,3073350,asia,southern asia,
247,xinzhou,xinzhou,38.4178,112.7233,china,cn,3067501,asia,eastern asia,
248,wuzhou,wuzhou,23.4833,111.3167,china,cn,3061100,asia,eastern asia,
249,addis ababa,addis ababa,9.0272,38.7369,ethiopia,et,3041002,africa,sub-saharan africa,eastern africa
250,chaoyang,chaoyang,41.5757,120.4486,china,cn,3044641,asia,eastern asia,
251,brasília,brasilia,-15.7939,-47.8828,brazil,br,3015268,americas,latin america and the caribbean,south america
252,mashhad,mashhad,36.3069,59.6042,iran,ir,3001184,asia,southern asia,
253,shaoguan,shaoguan,24.8011,113.5927,china,cn,2997600,asia,eastern asia,
254,kuwait city,kuwait city,29.375,47.98,kuwait,kw,2989000,asia,western asia,
255,shanwei,shanwei,22.7664,115.3331,china,cn,2993600,asia,eastern asia,
256,quezon city,quezon city,14.6333,121.0333,philippines,ph,2960048,asia,south-eastern asia,
257,minneapolis,minneapolis,44.9635,-93.2678,united states,us,2977172,americas,northern america,
258,kyiv,kyiv,50.45,30.5236,ukraine,ua,2963199,europe,eastern europe,
259,sanaa,sanaa,15.35,44.2,yemen,ye,2957000,asia,western asia,
260,meishan,meishan,30.0575,103.8381,china,cn,2950545,asia,eastern asia,
261,guatemala city,guatemala city,14.6099,-90.5252,guatemala,gt,2934841,americas,latin america and the caribbean,central america
262,incheon,incheon,37.4639,126.6486,south korea,kr,2913024,asia,eastern asia,
263,ningde,ningde,26.6617,119.5228,china,cn,2910000,asia,eastern asia,
264,tampa,tampa,27.9942,-82.4451,united states,us,2908063,americas,northern america,
265,daqing,daqing,46.5979,125.008,china,cn,2904532,asia,eastern asia,
266,putian,putian,25.4394,119.0103,china,cn,2900000,asia,eastern asia,
267,bandung,bandung,-6.95,107.5667,indonesia,id,2875673,asia,south-eastern asia,
268,surabaya,surabaya,-7.2458,112.7378,indonesia,id,2885555,asia,south-eastern asia,
269,salvador,salvador,-12.9708,-38.5108,brazil,br,2886698,americas,latin america and the caribbean,south america
270,denver,denver,39.7621,-104.8759,united states,us,2876625,americas,northern america,
271,rome,rome,41.8931,12.4828,italy,it,2872800,europe,southern europe,
272,la paz,la paz,-16.4942,-68.1475,bolivia,bo,2867504,americas,latin america and the caribbean,south america
273,hohhot,hohhot,40.8151,111.6629,china,cn,2866615,asia,eastern asia,
274,xiangtan,xiangtan,27.8431,112.9228,china,cn,2864800,asia,eastern asia,
275,pyongyang,pyongyang,39.03,125.73,north korea,kp,2863000,asia,eastern asia,
276,taichung,taichung,24.15,120.6667,taiwan,tw,2803894,asia,eastern asia,
277,weihai,weihai,37.5,122.1,china,cn,2804771,asia,eastern asia,
278,rizhao,rizhao,35.4164,119.4331,china,cn,2801013,asia,eastern asia,
279,mudanjiang,mudanjiang,44.5861,129.5997,china,cn,2798723,asia,eastern asia,
280,kaohsiung,kaohsiung,22.6167,120.3,taiwan,tw,2773533,asia,eastern asia,
281,guayaquil,guayaquil,-2.19,-79.8875,ecuador,ec,2723665,americas,latin america and the caribbean,south america
282,tieling,tieling,42.2841,123.8365,china,cn,2717732,asia,eastern asia,
283,cawnpore,cawnpore,26.4725,80.3311,india,in,2701324,asia,southern asia,
284,dingxi,dingxi,35.5806,104.6263,china,cn,2698624,asia,eastern asia,
285,taipei,taipei,25.0478,121.5319,taiwan,tw,2684567,asia,eastern asia,
286,nanping,nanping,26.6448,118.1728,china,cn,2690000,asia,eastern asia,
287,zigong,zigong,29.3498,104.7645,china,cn,2678899,asia,eastern asia,
288,chaozhou,chaozhou,23.67,116.63,china,cn,2656600,asia,eastern asia,
289,baotou,baotou,40.6562,109.8345,china,cn,2650364,asia,eastern asia,
290,gulou,gulou,26.0819,119.2981,china,cn,2606000,asia,eastern asia,
291,longyan,longyan,25.0881,117.0244,china,cn,2640000,asia,eastern asia,
292,ankang,ankang,32.6877,109.0235,china,cn,2629906,asia,eastern asia,
293,baoshan,baoshan,25.1211,99.169,china,cn,2627000,asia,eastern asia,
294,huludao,huludao,40.7094,120.8378,china,cn,2623541,asia,eastern asia,
295,antananarivo,antananarivo,-18.9386,47.5214,madagascar,mg,2610000,africa,sub-saharan africa,eastern africa
296,yanjiang,yanjiang,30.1256,104.6397,china,cn,2593843,asia,eastern asia,
297,chattogram,chattogram,22.335,91.8325,bangladesh,bd,2581643,asia,southern asia,
298,santo domingo,santo domingo,18.4764,-69.8933,dominican republic,do,2581827,americas,latin america and the caribbean,caribbean
299,sanming,sanming,26.2658,117.6302,china,cn,2580000,asia,eastern asia,
300,longba,longba,33.535,105.349,china,cn,2567718,asia,eastern asia,
301,brooklyn,brooklyn,40.6501,-73.9496,united states,us,2559903,americas,northern america,
302,yangjiang,yangjiang,21.8556,111.9627,china,cn,2555600,asia,eastern asia,
303,jiamusi,jiamusi,46.8081,130.3653,china,cn,2552097,asia,eastern asia,
304,ibadan,ibadan,7.3964,3.9167,nigeria,ng,2550593,africa,sub-saharan africa,western africa
305,luohe,luohe,33.583,114.0109,china,cn,2544266,asia,eastern asia,
306,lincang,lincang,23.8864,100.0871,china,cn,2536000,asia,eastern asia,
307,medellín,medellin,6.2447,-75.5748,colombia,co,2529403,americas,latin america and the caribbean,south america
308,xuanzhou,xuanzhou,30.9475,118.7518,china,cn,2532938,asia,eastern asia,
309,yunfu,yunfu,22.9242,112.0353,china,cn,2526900,asia,eastern asia,
310,dubai,dubai,25.2697,55.3094,united arab emirates,ae,2502715,asia,western asia,
311,mirzāpur,mirzapur,25.15,82.58,india,in,2496970,asia,southern asia,
312,tashkent,tashkent,41.3,69.2667,uzbekistan,uz,2497900,asia,central asia,
313,guangyuan,guangyuan,32.4353,105.8398,china,cn,2484122,asia,eastern asia,
314,cali,cali,3.44,-76.5197,colombia,co,2471474,americas,latin america and the caribbean,south america
315,huangshi,huangshi,30.2018,115.0326,china,cn,2471700,asia,eastern asia,
316,ouagadougou,ouagadougou,12.3686,-1.5275,burkina faso,bf,2453496,africa,sub-saharan africa,western africa
317,daegu,daegu,35.8667,128.6,south korea,kr,2461002,asia,eastern asia,
318,fortaleza,fortaleza,-3.7275,-38.5275,brazil,br,2452185,americas,latin america and the caribbean,south america
319,yaoundé,yaounde,3.8578,11.5181,cameroon,cm,2440462,africa,sub-saharan africa,middle africa
320,douala,douala,4.05,9.7,cameroon,cm,2446945,africa,sub-saharan africa,middle africa
321,jilin,jilin,43.8519,126.5481,china,cn,2396000,asia,eastern asia,
322,dandong,dandong,40.1167,124.3833,china,cn,2444697,asia,eastern asia,
323,lianshan,lianshan,40.7523,120.828,china,cn,2426000,asia,eastern asia,
324,yingkou,yingkou,40.6653,122.2297,china,cn,2428534,asia,eastern asia,
325,nāgpur,nagpur,21.1539,79.0831,india,in,2405665,asia,southern asia,
326,omdurman,omdurman,15.6167,32.48,sudan,sd,2395159,africa,northern africa,
327,bekasi,bekasi,-6.2333,107,indonesia,id,2381053,asia,south-eastern asia,
328,ghāziābād,ghaziabad,28.6667,77.4167,india,in,2375820,asia,southern asia,
329,yuxi,yuxi,24.3495,102.5432,china,cn,2386000,asia,eastern asia,
330,brisbane,brisbane,-27.4678,153.0281,australia,au,2360241,oceania,australia and new zealand,
331,anshun,anshun,26.2456,105.934,china,cn,2353100,asia,eastern asia,
332,depok,depok,-6.394,106.8225,indonesia,id,2330333,asia,south-eastern asia,
333,shangzhou,shangzhou,33.868,109.9244,china,cn,2341742,asia,eastern asia,
334,huainan,huainan,32.4831,117.0164,china,cn,2333896,asia,eastern asia,
335,kuaidamao,kuaidamao,41.7302,125.9471,china,cn,2324439,asia,eastern asia,
336,accra,accra,5.6037,-0.187,ghana,gh,2291352,africa,sub-saharan africa,western africa
337,fukuoka,fukuoka,33.6,130.4167,japan,jp,2280000,asia,eastern asia,
338,jincheng,jincheng,35.4906,112.8483,china,cn,2279146,asia,eastern asia,
339,vancouver,vancouver,49.25,-123.1,canada,ca,2264823,americas,northern america,
340,tangerang,tangerang,-6.1783,106.6319,indonesia,id,2237006,asia,south-eastern asia,
341,sanmenxia,sanmenxia,34.7736,111.195,china,cn,2234018,asia,eastern asia,
342,laibin,laibin,23.7333,109.2333,china,cn,2233900,asia,eastern asia,
343,queens,queens,40.7498,-73.7976,united states,us,2230722,americas,northern america,
344,qinbaling,qinbaling,35.7278,107.64,china,cn,2211191,asia,eastern asia,
345,xining,xining,36.6239,101.7787,china,cn,2208708,asia,eastern asia,
346,ma’anshan,ma'anshan,31.6858,118.5101,china,cn,2202899,asia,eastern asia,
347,yan’an,yan'an,36.5952,109.4863,china,cn,2187009,asia,eastern asia,
348,baku,baku,40.3667,49.8352,azerbaijan,az,2181800,asia,western asia,
349,gaoping,gaoping,30.7824,106.1281,china,cn,2174000,asia,eastern asia,
350,harare,harare,-17.8292,31.0522,zimbabwe,zw,2150000,africa,sub-saharan africa,eastern africa
351,havana,havana,23.1367,-82.3589,cuba,cu,2141652,americas,latin america and the caribbean,caribbean
352,phnom penh,phnom penh,11.5696,104.921,cambodia,kh,2129371,asia,south-eastern asia,
353,ningbo,ningbo,29.875,121.5492,china,cn,2125500,asia,eastern asia,
354,mogadishu,mogadishu,2.0408,45.3425,somalia,so,2120000,africa,sub-saharan africa,eastern africa
355,puning,puning,23.2993,116.1586,china,cn,2118200,asia,eastern asia,
356,medan,medan,3.6667,98.6667,indonesia,id,2109330,asia,south-eastern asia,
357,huaibei,huaibei,33.9562,116.789,china,cn,2114276,asia,eastern asia,
358,qingyang,qingyang,24.8141,118.5792,china,cn,2111000,asia,eastern asia,
359,riverside,riverside,33.9381,-117.3948,united states,us,2107852,americas,northern america,
360,baltimore,baltimore,39.3051,-76.6144,united states,us,2106068,americas,northern america,
361,haiphong,haiphong,20.8,106.6667,vietnam,vn,2103500,asia,south-eastern asia,
362,las vegas,las vegas,36.2333,-115.2654,united states,us,2104198,americas,northern america,
363,chongzuo,chongzuo,22.4167,107.3667,china,cn,2099400,asia,eastern asia,
364,rawalpindi,rawalpindi,33.6007,73.0679,pakistan,pk,2098231,asia,southern asia,
365,kumasi,kumasi,6.6833,-1.6167,ghana,gh,2069350,africa,sub-saharan africa,western africa
366,portland,portland,45.5372,-122.65,united states,us,2074775,americas,northern america,
367,vadodara,vadodara,22.3,73.2,india,in,2065771,asia,southern asia,
368,hezhou,hezhou,24.4164,111.5478,china,cn,2072600,asia,eastern asia,
369,pingliang,pingliang,35.5412,106.6819,china,cn,2068033,asia,eastern asia,
370,san antonio,san antonio,29.4658,-98.5253,united states,us,2049293,americas,northern america,
371,perth,perth,-31.9522,115.8589,australia,au,2039200,oceania,australia and new zealand,
372,vishākhapatnam,vishakhapatnam,17.7333,83.3167,india,in,2035922,asia,southern asia,
373,shengli,shengli,37.45,118.4667,china,cn,2035338,asia,eastern asia,
374,gujranwala,gujranwala,32.15,74.1833,pakistan,pk,2027001,asia,southern asia,
375,baicheng,baicheng,45.6148,122.832,china,cn,2032356,asia,eastern asia,
376,fushun,fushun,41.8708,123.8917,china,cn,2024000,asia,eastern asia,
377,st. louis,st. louis,38.6358,-90.2451,united states,us,2024074,americas,northern america,
378,bamako,bamako,12.6458,-7.9922,mali,ml,2009109,africa,sub-saharan africa,western africa
379,quito,quito,-0.22,-78.5125,ecuador,ec,2011388,americas,latin america and the caribbean,south america
380,minsk,minsk,53.9022,27.5618,belarus,by,2009786,europe,eastern europe,
381,indore,indore,22.7206,75.8472,india,in,1994397,asia,southern asia,
382,yinchuan,yinchuan,38.4795,106.2254,china,cn,1993088,asia,eastern asia,
383,kananga,kananga,-5.8961,22.4167,congo (kinshasa),cd,1971704,africa,sub-saharan africa,middle africa
384,peshawar,peshawar,34,71.5,pakistan,pk,1970042,asia,southern asia,
385,sapporo,sapporo,43.0621,141.3544,japan,jp,1961690,asia,eastern asia,
386,eşfahān,esfahan,32.6447,51.6675,iran,ir,1961260,asia,southern asia,
387,caracas,caracas,10.5,-66.9333,venezuela,ve,1943901,americas,latin america and the caribbean,south america
388,pingxiang,pingxiang,27.6333,113.85,china,cn,1933200,asia,eastern asia,
389,aleppo,aleppo,36.2,37.15,syria,sy,1916781,asia,western asia,
390,tijuana,tijuana,32.525,-117.0333,mexico,mx,1922523,americas,latin america and the caribbean,central america
391,almaty,almaty,43.25,76.9,kazakhstan,kz,1916822,asia,central asia,
392,vienna,vienna,48.2083,16.3725,austria,at,1911191,europe,western europe,
393,thāne,thane,19.18,72.9633,india,in,1886941,asia,southern asia,
394,sacramento,sacramento,38.5667,-121.4683,united states,us,1898019,americas,northern america,
395,blantyre,blantyre,-15.7861,35.0058,malawi,mw,1895973,africa,sub-saharan africa,eastern africa
396,tainan,tainan,22.9833,120.1833,taiwan,tw,1883831,asia,eastern asia,
397,zhuhai,zhuhai,22.2769,113.5678,china,cn,1891100,asia,eastern asia,
398,bucharest,bucharest,44.4,26.0833,romania,ro,1883425,europe,eastern europe,
399,curitiba,curitiba,-25.4297,-49.2719,brazil,br,1879355,americas,latin america and the caribbean,south america
400,multan,multan,30.1978,71.4711,pakistan,pk,1871843,asia,southern asia,
401,xiping,xiping,40.082,113.2981,china,cn,1873000,asia,eastern asia,
402,ecatepec,ecatepec,19.6097,-99.06,mexico,mx,1857188,americas,latin america and the caribbean,central america
403,jixi,jixi,45.2937,130.965,china,cn,1862165,asia,eastern asia,
404,saidu sharif,saidu sharif,34.75,72.3572,pakistan,pk,1860310,asia,southern asia,
405,liaoyang,liaoyang,41.2643,123.1772,china,cn,1858768,asia,eastern asia,
406,hamburg,hamburg,53.55,10,germany,de,1852478,europe,western europe,
407,meru,meru,0.05,37.65,kenya,ke,1833000,africa,sub-saharan africa,eastern africa
408,brazzaville,brazzaville,-4.2667,15.2833,congo (brazzaville),cg,1827000,africa,sub-saharan africa,middle africa
409,orlando,orlando,28.4772,-81.3369,united states,us,1822394,americas,northern america,
410,fuxin,fuxin,42.0127,121.6486,china,cn,1819339,asia,eastern asia,
411,wuwei,wuwei,37.9278,102.6329,china,cn,1815059,asia,eastern asia,
412,manaus,manaus,-3.1,-60.0167,brazil,br,1802014,americas,latin america and the caribbean,south america
413,bhopāl,bhopal,23.25,77.4167,india,in,1798218,asia,southern asia,
414,san jose,san jose,37.3019,-121.8486,united states,us,1798103,americas,northern america,
415,warsaw,warsaw,52.23,21.0111,poland,pl,1790658,europe,eastern europe,
416,lubumbashi,lubumbashi,-11.6697,27.4581,congo (kinshasa),cd,1786397,africa,sub-saharan africa,middle africa
417,davao,davao,7.0667,125.6,philippines,ph,1776949,asia,south-eastern asia,
418,haikou,haikou,20.02,110.32,china,cn,1776141,asia,eastern asia,
419,damascus,damascus,33.5131,36.2919,syria,sy,1754000,asia,western asia,
420,shuyangzha,shuyangzha,34.1299,118.7734,china,cn,1770000,asia,eastern asia,
421,brussels,brussels,50.8353,4.3314,belgium,be,1743000,europe,western europe,
422,lusaka,lusaka,-15.4167,28.2833,zambia,zm,1742979,africa,sub-saharan africa,eastern africa
423,hyderabad city,hyderabad city,25.3792,68.3683,pakistan,pk,1732693,asia,southern asia,
424,budapest,budapest,47.4983,19.0408,hungary,hu,1723836,europe,eastern europe,
425,shuozhou,shuozhou,39.3408,112.4292,china,cn,1714857,asia,eastern asia,
426,cleveland,cleveland,41.4767,-81.6804,united states,us,1710093,americas,northern america,
427,benxi,benxi,41.292,123.761,china,cn,1709538,asia,eastern asia,
428,baiyin,baiyin,36.5448,104.1766,china,cn,1708751,asia,eastern asia,
429,pittsburgh,pittsburgh,40.4396,-79.9762,united states,us,1703266,americas,northern america,
430,patna,patna,25.61,85.1414,india,in,1684222,asia,southern asia,
431,mosul,mosul,36.3667,43.1167,iraq,iq,1694000,asia,western asia,
432,caloocan city,caloocan city,14.65,120.9667,philippines,ph,1661584,asia,south-eastern asia,
433,austin,austin,30.3004,-97.7522,united states,us,1687311,americas,northern america,
434,sanzhou,sanzhou,30.82,108.4,china,cn,1680000,asia,eastern asia,
435,beihai,beihai,21.4667,109.1,china,cn,1680000,asia,eastern asia,
436,mecca,mecca,21.4225,39.8261,saudi arabia,sa,1675368,asia,western asia,
437,heihe,heihe,50.2458,127.4886,china,cn,1673899,asia,eastern asia,
438,jingdezhen,jingdezhen,29.2942,117.2036,china,cn,1673200,asia,eastern asia,
439,conakry,conakry,9.538,-13.6773,guinea,gn,1667864,africa,sub-saharan africa,western africa
440,kampala,kampala,0.3136,32.5811,uganda,ug,1659600,africa,sub-saharan africa,eastern africa
441,cincinnati,cincinnati,39.1413,-84.5061,united states,us,1662691,americas,northern america,
442,recife,recife,-8.0539,-34.8808,brazil,br,1653461,americas,latin america and the caribbean,south america
443,yushan,yushan,31.3867,120.9766,china,cn,1651200,asia,eastern asia,
444,zhongli,zhongli,24.965,121.2168,taiwan,tw,1632616,asia,eastern asia,
445,kansas city,kansas city,39.1239,-94.5541,united states,us,1636715,americas,northern america,
446,manhattan,manhattan,40.7834,-73.9662,united states,us,1628706,americas,northern america,
447,bilāspur,bilaspur,22.15,82.0167,india,in,1625502,asia,southern asia,
448,semarang,semarang,-6.9667,110.4167,indonesia,id,1621384,asia,south-eastern asia,
449,ludhiāna,ludhiana,30.9083,75.8486,india,in,1618879,asia,southern asia,
450,novosibirsk,novosibirsk,55.0333,82.9167,russia,ru,1602915,europe,eastern europe,
451,chengtangcun,chengtangcun,35.0833,117.15,china,cn,1603659,asia,eastern asia,
452,āgra,agra,27.1724,78.0131,india,in,1592000,asia,southern asia,
453,karaj,karaj,35.8327,50.9915,iran,ir,1592492,asia,southern asia,
454,wenzhou,wenzhou,27.9991,120.6561,china,cn,1588700,asia,eastern asia,
455,indianapolis,indianapolis,39.7771,-86.1458,united states,us,1588961,americas,northern america,
456,león de los aldama,leon de los aldama,21.1167,-101.6833,mexico,mx,1579803,americas,latin america and the caribbean,central america
457,puebla,puebla,19.0333,-98.1833,mexico,mx,1576259,americas,latin america and the caribbean,central america
458,kalyān,kalyan,19.2502,73.1602,india,in,1576614,asia,southern asia,
459,madurai,madurai,9.9197,78.1194,india,in,1561129,asia,southern asia,
460,mbuji-mayi,mbuji-mayi,-6.1209,23.5967,congo (kinshasa),cd,1559073,africa,sub-saharan africa,middle africa
461,hebi,hebi,35.7497,114.2887,china,cn,1569208,asia,eastern asia,
462,shīrāz,shiraz,29.61,52.5425,iran,ir,1565572,asia,southern asia,
463,jamshedpur,jamshedpur,22.8,86.1833,india,in,1558000,asia,southern asia,
464,columbus,columbus,39.9862,-82.985,united states,us,1562009,americas,northern america,
465,tabrīz,tabriz,38.0833,46.2833,iran,ir,1558693,asia,southern asia,
466,maracaibo,maracaibo,10.6333,-71.6333,venezuela,ve,1551539,americas,latin america and the caribbean,south america
467,kawasaki,kawasaki,35.5167,139.7,japan,jp,1539522,asia,eastern asia,
468,aba,aba,5.1167,7.3667,nigeria,ng,1530000,africa,sub-saharan africa,western africa
469,palembang,palembang,-2.9833,104.7644,indonesia,id,1535952,asia,south-eastern asia,
470,zhangjiajie,zhangjiajie,29.1255,110.4844,china,cn,1537900,asia,eastern asia,
471,kōbe,kobe,34.6913,135.183,japan,jp,1513193,asia,eastern asia,
472,charlotte,charlotte,35.208,-80.8304,united states,us,1512923,americas,northern america,
473,changshu,changshu,31.65,120.7333,china,cn,1510100,asia,eastern asia,
474,lianjiang,lianjiang,21.6146,110.2794,china,cn,1509400,asia,eastern asia,
475,ximeicun,ximeicun,24.9633,118.3811,china,cn,1508000,asia,eastern asia,
476,jianguang,jianguang,28.1958,115.7833,china,cn,1507402,asia,eastern asia,
477,yucheng,yucheng,29.9888,103.0007,china,cn,1507258,asia,eastern asia,
478,belém,belem,-1.4558,-48.5039,brazil,br,1499641,americas,latin america and the caribbean,south america
479,guiping,guiping,23.4,110.0833,china,cn,1496904,asia,eastern asia,
480,leizhou,leizhou,20.9147,110.0806,china,cn,1494700,asia,eastern asia,
481,gwangju,gwangju,35.1667,126.9167,south korea,kr,1490092,asia,eastern asia,
482,munich,munich,48.1375,11.575,germany,de,1488202,europe,western europe,
483,nāsik,nasik,20,73.7833,india,in,1486053,asia,southern asia,
484,porto alegre,porto alegre,-30.0328,-51.23,brazil,br,1484941,americas,latin america and the caribbean,south america
485,valencia,valencia,10.1667,-68,venezuela,ve,1484430,americas,latin america and the caribbean,south america
486,onitsha,onitsha,6.1667,6.7833,nigeria,ng,1483000,africa,sub-saharan africa,western africa
487,abu dhabi,abu dhabi,24.4511,54.3969,united arab emirates,ae,1483000,asia,western asia,
488,virginia beach,virginia beach,36.7335,-76.0435,united states,us,1478868,americas,northern america,
489,daejeon,daejeon,36.351,127.385,south korea,kr,1475221,asia,eastern asia,
490,zapopan,zapopan,20.7167,-103.4,mexico,mx,1476491,americas,latin america and the caribbean,central america
491,yekaterinburg,yekaterinburg,56.8356,60.6128,russia,ru,1468833,europe,eastern europe,
492,huazhou,huazhou,32.6832,112.079,china,cn,1468061,asia,eastern asia,
493,kyōto,kyoto,35.0117,135.7683,japan,jp,1464890,asia,eastern asia,
494,shuangyashan,shuangyashan,46.6388,131.1545,china,cn,1462626,asia,eastern asia,
495,pizhou,pizhou,34.3422,118.0097,china,cn,1458038,asia,eastern asia,
496,el kelaa des srarhna,el kelaa des srarhna,32.05,-7.4,morocco,ma,1450021,africa,northern africa,
497,kharkiv,kharkiv,50,36.2292,ukraine,ua,1446107,europe,eastern europe,
498,yangshe,yangshe,31.8775,120.5512,china,cn,1432044,asia,eastern asia,
499,guyuan,guyuan,36.008,106.2782,china,cn,1426000,asia,eastern asia,
500,khulna,khulna,22.8167,89.55,bangladesh,bd,1400689,asia,southern asia,
501,muscat,muscat,23.6139,58.5922,oman,om,1421409,asia,western asia,
502,bronx,bronx,40.8501,-73.8662,united states,us,1418207,americas,northern america,
503,gaozhou,gaozhou,21.9135,110.8481,china,cn,1414100,asia,eastern asia,
504,chizhou,chizhou,30.6583,117.4849,china,cn,1402518,asia,eastern asia,
505,farīdābād,faridabad,28.4353,77.3147,india,in,1394000,asia,southern asia,
506,ulaanbaatar,ulaanbaatar,47.9214,106.9055,mongolia,mn,1396288,asia,eastern asia,
507,goiânia,goiania,-16.6806,-49.2564,brazil,br,1393575,americas,latin america and the caribbean,south america
508,fuqing,fuqing,25.7232,119.3735,china,cn,1390487,asia,eastern asia,
509,belgrade,belgrade,44.8167,20.4667,serbia,rs,1378682,europe,southern europe,
510,pingdu,pingdu,36.7833,119.9556,china,cn,1378900,asia,eastern asia,
511,milan,milan,45.4669,9.19,italy,it,1366180,europe,southern europe,
512,aurangābād,aurangabad,19.88,75.32,india,in,1371330,asia,southern asia,
513,yutan,yutan,28.3147,112.554,china,cn,1368117,asia,eastern asia,
514,milwaukee,milwaukee,43.0642,-87.9673,united states,us,1365787,americas,northern america,
515,huangshan,huangshan,29.7132,118.3151,china,cn,1358980,asia,eastern asia,
516,auckland,auckland,-36.85,174.7833,new zealand,nz,1346091,oceania,australia and new zealand,
517,makassar,makassar,-5.1331,119.4136,indonesia,id,1338663,asia,south-eastern asia,
518,santiago,santiago,19.45,-70.7,dominican republic,do,1343423,americas,latin america and the caribbean,caribbean
519,prague,prague,50.0833,14.4167,czechia,cz,1335084,europe,eastern europe,
520,rājkot,rajkot,22.2969,70.7984,india,in,1335397,asia,southern asia,
521,liangshi,liangshi,27.2578,111.7351,china,cn,1335900,asia,eastern asia,
522,córdoba,cordoba,-31.4167,-64.1833,argentina,ar,1329604,americas,latin america and the caribbean,south america
523,guarulhos,guarulhos,-23.4667,-46.5333,brazil,br,1324781,americas,latin america and the caribbean,south america
524,al başrah,al basrah,30.515,47.81,iraq,iq,1326564,asia,western asia,
525,saitama,saitama,35.8617,139.6453,japan,jp,1320571,asia,eastern asia,
526,juárez,juarez,31.7386,-106.487,mexico,mx,1321004,americas,latin america and the caribbean,central america
527,montevideo,montevideo,-34.8667,-56.1667,uruguay,uy,1319108,americas,latin america and the caribbean,south america
528,xintai,xintai,35.91,117.78,china,cn,1315942,asia,eastern asia,
529,wusong,wusong,30.9333,117.7667,china,cn,1311726,asia,eastern asia,
530,meerut,meerut,28.99,77.7,india,in,1305429,asia,southern asia,
531,yushu,yushu,44.8249,126.5451,china,cn,1304436,asia,eastern asia,
532,rongcheng,rongcheng,26.2312,104.0966,china,cn,1302891,asia,eastern asia,
533,huazhou,huazhou,21.654,110.6294,china,cn,1302100,asia,eastern asia,
534,yangquan,yangquan,37.8576,113.5762,china,cn,1300000,asia,eastern asia,
535,adelaide,adelaide,-34.9275,138.6,australia,au,1295714,oceania,australia and new zealand,
536,baishan,baishan,41.9377,126.4179,china,cn,1296127,asia,eastern asia,
537,dayan,dayan,26.8808,100.2208,china,cn,1296000,asia,eastern asia,
538,haicheng,haicheng,40.8523,122.7474,china,cn,1293877,asia,eastern asia,
539,jiangyin,jiangyin,31.9087,120.2653,china,cn,1285785,asia,eastern asia,
540,huaiyin,huaiyin,33.5819,119.028,china,cn,1264000,asia,eastern asia,
541,wuzhong,wuzhong,37.9874,106.1919,china,cn,1284000,asia,eastern asia,
542,cacuaco,cacuaco,-8.7833,13.3667,angola,ao,1279488,africa,sub-saharan africa,middle africa
543,barranquilla,barranquilla,10.9639,-74.7964,colombia,co,1274250,americas,latin america and the caribbean,south america
544,sofia,sofia,42.6979,23.3217,bulgaria,bg,1277411,europe,eastern europe,
545,soweto,soweto,-26.2678,27.8586,south africa,za,1271628,africa,sub-saharan africa,southern africa
546,jabalpur,jabalpur,23.1667,79.9333,india,in,1267564,asia,southern asia,
547,rucheng,rucheng,32.3852,120.5634,china,cn,1267066,asia,eastern asia,
548,nizhniy novgorod,nizhniy novgorod,56.3269,44.0075,russia,ru,1264075,europe,eastern europe,
549,shaoyang,shaoyang,32.9387,119.8404,china,cn,1253548,asia,eastern asia,
550,dhanbād,dhanbad,23.7928,86.435,india,in,1246000,asia,southern asia,
551,comayagüela,comayaguela,14.0833,-87.2167,honduras,hn,1250000,americas,latin america and the caribbean,central america
552,laiwu,laiwu,36.1833,117.6667,china,cn,1248636,asia,eastern asia,
553,sharjah,sharjah,25.3575,55.3919,united arab emirates,ae,1247749,asia,western asia,
554,jingling,jingling,30.6667,113.1667,china,cn,1247400,asia,eastern asia,
555,kazan,kazan,55.7908,49.1144,russia,ru,1243500,europe,eastern europe,
556,suwon,suwon,37.2858,127.01,south korea,kr,1234300,asia,eastern asia,
557,yongcheng,yongcheng,33.9317,116.4459,china,cn,1240382,asia,eastern asia,
558,calgary,calgary,51.05,-114.0667,canada,ca,1239220,americas,northern america,
559,cần thơ,can tho,10.0333,105.7833,vietnam,vn,1237300,asia,south-eastern asia,
560,abuja,abuja,9.0556,7.4914,nigeria,ng,1235880,africa,sub-saharan africa,western africa
561,mandalay,mandalay,21.9831,96.0844,myanmar,mm,1225546,asia,south-eastern asia,
562,beidao,beidao,34.602,105.918,china,cn,1225000,asia,eastern asia,
563,xiangshui,xiangshui,26.5964,104.8314,china,cn,1221000,asia,eastern asia,
564,dadukou,dadukou,26.5849,101.7149,china,cn,1214121,asia,eastern asia,
565,vila velha,vila velha,3.2167,-51.2167,brazil,br,1209091,americas,latin america and the caribbean,south america
566,chelyabinsk,chelyabinsk,55.15,61.4,russia,ru,1202371,europe,eastern europe,
567,mombasa,mombasa,-4.05,39.6667,kenya,ke,1200000,africa,sub-saharan africa,eastern africa
568,providence,providence,41.823,-71.4187,united states,us,1203230,americas,northern america,
569,vārānasi,varanasi,25.3189,83.0128,india,in,1198491,asia,southern asia,
570,qom,qom,34.64,50.8764,iran,ir,1201158,asia,southern asia,
571,zhangye,zhangye,38.9355,100.4553,china,cn,1199515,asia,eastern asia,
572,hiroshima,hiroshima,34.4,132.45,japan,jp,1198021,asia,eastern asia,
573,maiduguri,maiduguri,11.8333,13.15,nigeria,ng,1197497,africa,sub-saharan africa,western africa
574,maputo,maputo,-25.9153,32.5764,mozambique,mz,1191613,africa,sub-saharan africa,eastern africa
575,doha,doha,25.3,51.5333,qatar,qa,1186023,asia,western asia,
576,rosario,rosario,-32.9575,-60.6394,argentina,ar,1193605,americas,latin america and the caribbean,south america
577,pikine,pikine,14.75,-17.4,senegal,sn,1170791,africa,sub-saharan africa,western africa
578,xinyu,xinyu,27.795,114.9242,china,cn,1186700,asia,eastern asia,
579,ahvāz,ahvaz,31.3203,48.6692,iran,ir,1184788,asia,southern asia,
580,jacksonville,jacksonville,30.3322,-81.6749,united states,us,1181496,americas,northern america,
581,medina,medina,24.4667,39.6,saudi arabia,sa,1180770,asia,western asia,
582,srīnagar,srinagar,34.0911,74.8061,india,in,1180570,asia,southern asia,
583,omsk,omsk,54.9667,73.3833,russia,ru,1178391,europe,eastern europe,
584,liaoyuan,liaoyuan,42.8976,125.1381,china,cn,1176239,asia,eastern asia,
585,cilacap,cilacap,-7.7167,109.017,indonesia,id,1174964,asia,south-eastern asia,
586,yingtan,yingtan,28.2333,117,china,cn,1175000,asia,eastern asia,
587,bandar lampung,bandar lampung,-5.4294,105.2625,indonesia,id,1166761,asia,south-eastern asia,
588,samara,samara,53.1833,50.1167,russia,ru,1169719,europe,eastern europe,
589,guankou,guankou,28.2363,113.6984,china,cn,1168056,asia,eastern asia,
590,ulsan,ulsan,35.55,129.3167,south korea,kr,1166033,asia,eastern asia,
591,dingzhou,dingzhou,38.5158,114.9845,china,cn,1165182,asia,eastern asia,
592,campinas,campinas,-22.9009,-47.0573,brazil,br,1164098,americas,latin america and the caribbean,south america
593,lianyuan,lianyuan,27.6961,111.6659,china,cn,1162928,asia,eastern asia,
594,dakar,dakar,14.7319,-17.4572,senegal,sn,1146053,africa,sub-saharan africa,western africa
595,rongcheng,rongcheng,29.8239,112.9019,china,cn,1162770,asia,eastern asia,
596,kaiyuan,kaiyuan,36.0656,113.8153,china,cn,1160000,asia,eastern asia,
597,nay pyi taw,nay pyi taw,19.7475,96.115,myanmar,mm,1160242,asia,south-eastern asia,
598,kigali,kigali,-1.9536,30.0606,rwanda,rw,1156663,africa,sub-saharan africa,eastern africa
599,leiyang,leiyang,26.4179,112.8457,china,cn,1151554,asia,eastern asia,
600,yichun,yichun,47.7235,128.8893,china,cn,1148126,asia,eastern asia,
601,benin city,benin city,6.3176,5.6145,nigeria,ng,1147188,africa,sub-saharan africa,western africa
602,birmingham,birmingham,52.48,-1.9025,united kingdom,gb,1137100,europe,northern europe,
603,xiantao,xiantao,30.3833,113.4,china,cn,1140100,asia,eastern asia,
604,amritsar,amritsar,31.6269,74.877,india,in,1132383,asia,southern asia,
605,callao,callao,-12.0611,-77.1333,peru,pe,1129854,americas,latin america and the caribbean,south america
606,monterrey,monterrey,25.6667,-100.3,mexico,mx,1135512,americas,latin america and the caribbean,central america
607,alīgarh,aligarh,27.88,78.08,india,in,1131160,asia,southern asia,
608,yingchuan,yingchuan,34.1511,113.4733,china,cn,1131896,asia,eastern asia,
609,ciudad nezahualcóyotl,ciudad nezahualcoyotl,19.41,-99.03,mexico,mx,1109363,americas,latin america and the caribbean,central america
610,tripoli,tripoli,32.8752,13.1875,libya,ly,1126000,africa,northern africa,
611,nampo,nampo,38.7689,125.4505,north korea,kp,1127000,asia,eastern asia,
612,rostov,rostov,47.2333,39.7167,russia,ru,1125299,europe,eastern europe,
613,tegucigalpa,tegucigalpa,14.0942,-87.2067,honduras,hn,1126534,americas,latin america and the caribbean,central america
614,tbilisi,tbilisi,41.7225,44.7925,georgia,ge,1118035,asia,western asia,
615,guwāhāti,guwahati,26.1722,91.7458,india,in,1116267,asia,southern asia,
616,ufa,ufa,54.7261,55.9475,russia,ru,1115560,europe,eastern europe,
617,fès,fes,34.0433,-5.0033,morocco,ma,1112072,africa,northern africa,
618,biên hòa,bien hoa,10.9508,106.8221,vietnam,vn,1104000,asia,south-eastern asia,
619,n’djamena,n'djamena,12.11,15.05,chad,td,1092066,africa,sub-saharan africa,middle africa
620,ikare,ikare,7.5304,5.76,nigeria,ng,1099931,africa,sub-saharan africa,western africa
621,salt lake city,salt lake city,40.7777,-111.9306,united states,us,1098526,americas,northern america,
622,bhilai,bhilai,21.2186,81.4314,india,in,1097000,asia,southern asia,
623,hāora,haora,22.5736,88.3251,india,in,1077075,asia,southern asia,
624,tamale,tamale,9.4075,-0.8533,ghana,gh,1095808,africa,sub-saharan africa,western africa
625,xibeijie,xibeijie,39.737,98.5049,china,cn,1095947,asia,eastern asia,
626,copenhagen,copenhagen,55.6805,12.5615,denmark,dk,1085000,europe,northern europe,
627,nezahualcóyotl,nezahualcoyotl,19.4,-98.9889,mexico,mx,1077208,americas,latin america and the caribbean,central america
628,hanchuan,hanchuan,30.652,113.8274,china,cn,1092700,asia,eastern asia,
629,gongzhuling,gongzhuling,43.5036,124.8088,china,cn,1092692,asia,eastern asia,
630,krasnoyarsk,krasnoyarsk,56.0089,92.8719,russia,ru,1083865,europe,eastern europe,
631,cologne,cologne,50.9422,6.9578,germany,de,1083498,europe,western europe,
632,yicheng,yicheng,31.3697,119.8239,china,cn,1082929,asia,eastern asia,
633,zhufeng,zhufeng,36,119.4167,china,cn,1081960,asia,eastern asia,
634,são gonçalo,sao goncalo,-22.8269,-43.0539,brazil,br,1077687,americas,latin america and the caribbean,south america
635,nashville,nashville,36.1715,-86.7843,united states,us,1081903,americas,northern america,
636,yerevan,yerevan,40.1814,44.5144,armenia,am,1075800,asia,western asia,
637,nur-sultan,nur-sultan,51.1333,71.4333,kazakhstan,kz,1078362,asia,central asia,
638,nouakchott,nouakchott,18.0858,-15.9785,mauritania,mr,1077169,africa,sub-saharan africa,western africa
639,vereeniging,vereeniging,-26.6736,27.9319,south africa,za,1074000,africa,sub-saharan africa,southern africa
640,richmond,richmond,37.5295,-77.4756,united states,us,1075798,americas,northern america,
641,são luís,sao luis,-2.53,-44.3028,brazil,br,1073893,americas,latin america and the caribbean,south america
642,rānchi,ranchi,23.3556,85.3347,india,in,1073440,asia,southern asia,
643,san pedro sula,san pedro sula,15.5,-88.0333,honduras,hn,1073824,americas,latin america and the caribbean,central america
644,taixing,taixing,32.1724,120.0142,china,cn,1073921,asia,eastern asia,
645,gwalior,gwalior,26.215,78.1931,india,in,1069276,asia,southern asia,
646,memphis,memphis,35.1046,-89.9773,united states,us,1066967,americas,northern america,
647,goyang,goyang,37.6564,126.835,south korea,kr,1061929,asia,eastern asia,
648,bezwāda,bezwada,16.5167,80.6167,india,in,1048240,asia,southern asia,
649,edmonton,edmonton,53.5344,-113.4903,canada,ca,1062643,americas,northern america,
650,bishkek,bishkek,42.8667,74.5667,kyrgyzstan,kg,1053900,asia,central asia,
651,mizhou,mizhou,35.99,119.3801,china,cn,1060000,asia,eastern asia,
652,tunis,tunis,36.8008,10.18,tunisia,tn,1056247,africa,northern africa,
653,xishan,xishan,27.6609,113.4946,china,cn,1060000,asia,eastern asia,
654,ezhou,ezhou,30.3972,114.8842,china,cn,1059700,asia,eastern asia,
655,barquisimeto,barquisimeto,10.0678,-69.3467,venezuela,ve,1059092,americas,latin america and the caribbean,south america
656,sendai,sendai,38.2683,140.8694,japan,jp,1058070,asia,eastern asia,
657,hegang,hegang,47.3139,130.2775,china,cn,1058665,asia,eastern asia,
658,kathmandu,kathmandu,27.7167,85.3667,nepal,np,975453,asia,southern asia,
659,mexicali,mexicali,32.6633,-115.4678,mexico,mx,1049792,americas,latin america and the caribbean,central america
660,voronezh,voronezh,51.6717,39.2106,russia,ru,1047549,europe,eastern europe,
661,perm,perm,58.0139,56.2489,russia,ru,1048005,europe,eastern europe,
662,changwon,changwon,35.2281,128.6811,south korea,kr,1046054,asia,eastern asia,
663,zhongwei,zhongwei,37.5139,105.1884,china,cn,1046000,asia,eastern asia,
664,shouguang,shouguang,36.8833,118.7333,china,cn,1039205,asia,eastern asia,
665,bogor,bogor,-6.5917,106.8,indonesia,id,1030720,asia,south-eastern asia,
666,raleigh,raleigh,35.8325,-78.6435,united states,us,1038738,americas,northern america,
667,cartagena,cartagena,10.4236,-75.5253,colombia,co,1036412,americas,latin america and the caribbean,south america
668,chandīgarh,chandigarh,30.7353,76.7911,india,in,1026459,asia,southern asia,
669,matola,matola,-25.9667,32.4667,mozambique,mz,1032197,africa,sub-saharan africa,eastern africa
670,jodhpur,jodhpur,26.2944,73.0278,india,in,1033918,asia,southern asia,
671,ogbomoso,ogbomoso,8.1333,4.25,nigeria,ng,1032000,africa,sub-saharan africa,western africa
672,shymkent,shymkent,42.3,69.6,kazakhstan,kz,1028673,asia,central asia,
673,niamey,niamey,13.5086,2.1111,niger,ne,1026848,africa,sub-saharan africa,western africa
674,taizhou,taizhou,28.6583,121.4221,china,cn,1030200,asia,eastern asia,
675,managua,managua,12.15,-86.2667,nicaragua,ni,1028808,americas,latin america and the caribbean,central america
676,bagam,bagam,1.0678,104.0167,indonesia,id,1029808,asia,south-eastern asia,
677,shubrā al khaymah,shubra al khaymah,30.1286,31.2422,egypt,eg,1025569,africa,northern africa,
678,maceió,maceio,-9.6658,-35.735,brazil,br,1025360,americas,latin america and the caribbean,south america
679,monrovia,monrovia,6.3106,-10.8047,liberia,lr,1021762,africa,sub-saharan africa,western africa
680,wafangdian,wafangdian,39.6271,121.9972,china,cn,1024876,asia,eastern asia,
681,zhongxiang,zhongxiang,31.169,112.5853,china,cn,1022514,asia,eastern asia,
682,odesa,odesa,46.4775,30.7326,ukraine,ua,1017699,europe,eastern europe,
683,port-au-prince,port-au-prince,18.5425,-72.3386,haiti,ht,987310,americas,latin america and the caribbean,caribbean
684,new orleans,new orleans,30.0687,-89.9288,united states,us,1020886,americas,northern america,
685,villahermosa,villahermosa,17.9892,-92.9281,mexico,mx,1013484,americas,latin america and the caribbean,central america
686,thủ đức,thu duc,10.7924,106.7518,vietnam,vn,1013795,asia,south-eastern asia,
687,volgograd,volgograd,48.7086,44.5147,russia,ru,1015586,europe,eastern europe,
688,mysore,mysore,12.3086,76.6531,india,in,1014227,asia,southern asia,
689,islamabad,islamabad,33.6989,73.0369,pakistan,pk,1014825,asia,southern asia,
690,xinyi,xinyi,22.3559,110.9369,china,cn,1013900,asia,eastern asia,
691,raipur,raipur,21.2379,81.6337,india,in,1010087,asia,southern asia,
692,arequipa,arequipa,-16.3988,-71.5369,peru,pe,1008290,americas,latin america and the caribbean,south america
693,port harcourt,port harcourt,4.75,7,nigeria,ng,1005904,africa,sub-saharan africa,western africa
694,louisville,louisville,38.1663,-85.6485,united states,us,1005654,americas,northern america,
695,zaoyang,zaoyang,32.1287,112.7581,china,cn,1004741,asia,eastern asia,
696,shuizhai,shuizhai,33.4433,114.8994,china,cn,1003698,asia,eastern asia,
697,xingyi,xingyi,25.091,104.9011,china,cn,1004132,asia,eastern asia,
698,kota,kota,25.18,75.83,india,in,1001694,asia,southern asia,
699,quetta,quetta,30.192,67.007,pakistan,pk,1001205,asia,southern asia,
700,ottawa,ottawa,45.4247,-75.695,canada,ca,989567,americas,northern america,
701,stockholm,stockholm,59.3294,18.0686,sweden,se,975819,europe,northern europe,
702,asmara,asmara,15.3333,38.9167,eritrea,er,963000,africa,sub-saharan africa,eastern africa
703,freetown,freetown,8.4833,-13.2331,sierra leone,sl,951000,africa,sub-saharan africa,western africa
704,vientiane,vientiane,17.9667,102.6,laos,la,948487,asia,south-eastern asia,
705,jerusalem,jerusalem,31.7833,35.2167,israel,il,919438,asia,western asia,
706,bangui,bangui,4.3732,18.5628,central african republic,cf,889231,africa,sub-saharan africa,middle africa
707,panama city,panama city,9,-79.5,panama,pa,880691,americas,latin america and the caribbean,central america
708,amsterdam,amsterdam,52.3667,4.8833,netherlands,nl,862965,europe,western europe,
709,lomé,lome,6.1319,1.2228,togo,tg,837437,africa,sub-saharan africa,western africa
710,libreville,libreville,0.3901,9.4544,gabon,ga,797003,africa,sub-saharan africa,middle africa
711,zagreb,zagreb,45.8131,15.9772,croatia,hr,790017,europe,southern europe,
712,dushanbe,dushanbe,38.5731,68.7864,tajikistan,tj,778500,asia,central asia,
713,lilongwe,lilongwe,-13.9833,33.7833,malawi,mw,781538,africa,sub-saharan africa,eastern africa
714,cotonou,cotonou,6.402,2.518,benin,bj,762000,africa,sub-saharan africa,western africa
715,colombo,colombo,6.9167,79.8333,sri lanka,lk,752993,asia,southern asia,
716,pretoria,pretoria,-25.7464,28.1881,south africa,za,741651,africa,sub-saharan africa,southern africa
717,winnipeg,winnipeg,49.8844,-97.1464,canada,ca,705244,americas,northern america,
718,quebec city,quebec city,46.8139,-71.2081,canada,ca,705103,americas,northern america,
719,oslo,oslo,59.9111,10.7528,norway,no,693494,europe,northern europe,
720,athens,athens,37.9842,23.7281,greece,gr,664046,europe,southern europe,
721,bujumbura,bujumbura,-3.3825,29.3611,burundi,bi,658859,africa,sub-saharan africa,eastern africa
722,helsinki,helsinki,60.1756,24.9342,finland,fi,642045,europe,northern europe,
723,skopje,skopje,41.9833,21.4333,macedonia,mk,640000,europe,southern europe,
724,chisinau,chisinau,47.0228,28.8353,moldova,md,639000,europe,eastern europe,
725,riga,riga,56.9475,24.1069,latvia,lv,614618,europe,northern europe,
726,kingston,kingston,17.9714,-76.7931,jamaica,jm,580000,americas,latin america and the caribbean,caribbean
727,rabat,rabat,34.0253,-6.8361,morocco,ma,572717,africa,northern africa,
728,vilnius,vilnius,54.6833,25.2833,lithuania,lt,574147,europe,northern europe,
729,san salvador,san salvador,13.6989,-89.1914,el salvador,sv,567698,americas,latin america and the caribbean,central america
730,djibouti,djibouti,11.595,43.1481,djibouti,dj,562000,africa,sub-saharan africa,eastern africa
731,dublin,dublin,53.3497,-6.2603,ireland,ie,553165,europe,northern europe,
732,the hague,the hague,52.08,4.31,netherlands,nl,537833,europe,western europe,
733,asunción,asuncion,-25.3,-57.6333,paraguay,py,524190,americas,latin america and the caribbean,south america
734,lisbon,lisbon,38.708,-9.139,portugal,pt,506654,europe,southern europe,
735,bratislava,bratislava,48.1447,17.1128,slovakia,sk,475503,europe,eastern europe,
736,kitchener,kitchener,43.4186,-80.4728,canada,ca,470015,americas,northern america,
737,tallinn,tallinn,59.4372,24.745,estonia,ee,438341,europe,northern europe,
738,beirut,beirut,33.8869,35.5131,lebanon,lb,361366,asia,western asia,
739,cape town,cape town,-33.925,18.425,south africa,za,433688,africa,sub-saharan africa,southern africa
740,tirana,tirana,41.33,19.82,albania,al,418495,europe,southern europe,
741,wellington,wellington,-41.2889,174.7772,new zealand,nz,418500,oceania,australia and new zealand,
742,dodoma,dodoma,-6.1835,35.746,tanzania,tz,410956,africa,sub-saharan africa,eastern africa
743,halifax,halifax,44.6475,-63.5906,canada,ca,403131,americas,northern america,
744,bissau,bissau,11.8592,-15.5956,guinea-bissau,gw,395954,africa,sub-saharan africa,western africa
745,canberra,canberra,-35.2931,149.1269,australia,au,381488,oceania,australia and new zealand,
746,juba,juba,4.85,31.6,south sudan,ss,372410,africa,sub-saharan africa,eastern africa
747,yamoussoukro,yamoussoukro,6.8161,-5.2742,côte d'ivoire,ci,355573,africa,sub-saharan africa,western africa
748,victoria,victoria,48.4283,-123.3647,canada,ca,335696,americas,northern america,
749,maseru,maseru,-29.31,27.48,lesotho,ls,330790,africa,sub-saharan africa,southern africa
750,nicosia,nicosia,35.1725,33.365,cyprus,cy,330000,asia,western asia,
751,windhoek,windhoek,-22.57,17.0836,namibia,,322500,africa,sub-saharan africa,southern africa
752,port moresby,port moresby,-9.4789,147.1494,papua new guinea,pg,317374,oceania,melanesia,
753,porto-novo,porto-novo,6.4833,2.6167,benin,bj,300000,africa,sub-saharan africa,western africa
754,sucre,sucre,-19.0431,-65.2592,bolivia,bo,300000,americas,latin america and the caribbean,south america
755,san josé,san jose,9.9333,-84.0833,costa rica,cr,288054,americas,latin america and the caribbean,central america
756,ljubljana,ljubljana,46.05,14.5167,slovenia,si,286745,europe,southern europe,
757,sarajevo,sarajevo,43.8563,18.4132,bosnia and herzegovina,ba,275524,europe,southern europe,
758,nassau,nassau,25.0667,-77.3333,the bahamas,bs,274400,americas,latin america and the caribbean,caribbean
759,bloemfontein,bloemfontein,-29.1,26.2167,south africa,za,256185,africa,sub-saharan africa,southern africa
760,fort-de-france,fort-de-france,14.6104,-61.08,martinique,mq,253995,americas,latin america and the caribbean,caribbean
761,new delhi,new delhi,28.6139,77.209,india,in,249998,asia,southern asia,
762,gaborone,gaborone,-24.6569,25.9086,botswana,bw,231626,africa,sub-saharan africa,southern africa
763,paramaribo,paramaribo,5.8667,-55.1667,suriname,sr,223757,americas,latin america and the caribbean,south america
764,dili,dili,-8.5536,125.5783,timor-leste,tl,222323,asia,south-eastern asia,
765,male,male,4.175,73.5083,maldives,mv,133019,asia,southern asia,
766,georgetown,georgetown,6.7833,-58.1667,guyana,gy,200500,americas,latin america and the caribbean,south america
767,gibraltar,gibraltar,36.1324,-5.3781,gibraltar,gi,187083,europe,southern europe,
768,saint-denis,saint-denis,-20.8789,55.4481,reunion,re,190047,africa,sub-saharan africa,eastern africa
769,malabo,malabo,3.7521,8.7737,equatorial guinea,gq,187302,africa,sub-saharan africa,middle africa
770,podgorica,podgorica,42.4397,19.2661,montenegro,me,174515,europe,southern europe,
771,manama,manama,26.225,50.5775,bahrain,bh,157474,asia,western asia,
772,port louis,port louis,-20.1667,57.5,mauritius,mu,149194,africa,sub-saharan africa,eastern africa
773,willemstad,willemstad,12.108,-68.935,curaçao ,cw,150000,americas,latin america and the caribbean,caribbean
774,bern,bern,46.948,7.4474,switzerland,ch,133798,europe,western europe,
775,papeete,papeete,-17.5334,-149.5667,french polynesia,pf,131695,oceania,polynesia,
776,luxembourg,luxembourg,49.6106,6.1328,luxembourg,lu,128512,europe,western europe,
777,reykjavík,reykjavik,64.1475,-21.935,iceland,is,128793,europe,northern europe,
778,praia,praia,14.9177,-23.5092,cabo verde,cv,127832,africa,sub-saharan africa,western africa
779,sri jayewardenepura kotte,sri jayewardenepura kotte,6.9,79.9164,sri lanka,lk,115826,asia,southern asia,
780,bridgetown,bridgetown,13.0975,-59.6167,barbados,bb,110000,americas,latin america and the caribbean,caribbean
781,moroni,moroni,-11.7036,43.2536,comoros,km,111329,africa,sub-saharan africa,eastern africa
782,thimphu,thimphu,27.4833,89.6333,bhutan,bt,104000,asia,southern asia,
783,mbabane,mbabane,-26.3208,31.1617,swaziland,sz,94874,africa,sub-saharan africa,southern africa
784,nouméa,noumea,-22.2625,166.4443,new caledonia,nc,93060,oceania,melanesia,
785,honiara,honiara,-9.4333,159.95,solomon islands,sb,84520,oceania,melanesia,
786,suva,suva,-18.1333,178.4333,fiji,fj,88271,oceania,melanesia,
787,ankara,ankara,39.93,32.85,turkey,tr,77168,asia,western asia,
788,castries,castries,14.0167,-60.9833,saint lucia,lc,70000,americas,latin america and the caribbean,caribbean
789,cayenne,cayenne,4.933,-52.33,french guiana,gf,61550,americas,latin america and the caribbean,south america
790,são tomé,sao tome,0.3333,6.7333,sao tome and principe,st,56166,africa,sub-saharan africa,middle africa
791,port-vila,port-vila,-17.7333,168.3167,vanuatu,vu,51437,oceania,melanesia,
792,hamilton,hamilton,32.2942,-64.7839,bermuda,bm,52320,americas,northern america,
793,bandar seri begawan,bandar seri begawan,4.9167,114.9167,brunei,bn,50000,asia,south-eastern asia,
794,monaco,monaco,43.7396,7.4069,monaco,mc,36371,europe,western europe,
795,gitega,gitega,-3.4283,29.925,burundi,bi,41944,africa,sub-saharan africa,eastern africa
796,port of spain,port of spain,10.6667,-61.5167,trinidad and tobago,tt,37074,americas,latin america and the caribbean,caribbean
797,apia,apia,-13.8333,-171.8333,samoa,ws,37708,oceania,polynesia,
798,tarawa,tarawa,1.3382,173.0176,kiribati,ki,28802,oceania,micronesia,
799,oranjestad,oranjestad,12.5186,-70.0358,aruba,aw,34980,americas,latin america and the caribbean,caribbean
800,saint helier,saint helier,49.1858,-2.11,jersey,je,33522,europe,northern europe,channel islands
801,banjul,banjul,13.4531,-16.5775,the gambia,gm,31356,africa,sub-saharan africa,western africa
802,mamoudzou,mamoudzou,-12.7871,45.275,mayotte,yt,32057,africa,sub-saharan africa,eastern africa
803,majuro,majuro,7.0918,171.3802,marshall islands,mh,30000,oceania,micronesia,
804,douglas,douglas,54.15,-4.4819,isle of man,im,27938,europe,northern europe,
805,george town,george town,19.2866,-81.3744,cayman islands,ky,27704,americas,latin america and the caribbean,caribbean
806,victoria,victoria,-4.6236,55.4544,seychelles,sc,26450,africa,sub-saharan africa,eastern africa
807,kingstown,kingstown,13.1667,-61.2333,saint vincent and the grenadines,vc,25000,americas,latin america and the caribbean,caribbean
808,andorra la vella,andorra la vella,42.5,1.5,andorra,ad,22615,europe,southern europe,
809,saint john’s,saint john's,17.1211,-61.8447,antigua and barbuda,ag,21926,americas,latin america and the caribbean,caribbean
810,nuku‘alofa,nuku`alofa,-21.1347,-175.2083,tonga,to,23221,oceania,polynesia,
811,ashgabat,ashgabat,37.95,58.3833,turkmenistan,tm,19426,asia,central asia,
812,nuuk,nuuk,64.175,-51.7333,greenland,gl,18326,americas,northern america,
813,belmopan,belmopan,17.25,-88.7675,belize,bz,17222,americas,latin america and the caribbean,central america
814,roseau,roseau,15.3,-61.3833,dominica,dm,16582,americas,latin america and the caribbean,caribbean
815,basseterre,basseterre,17.2983,-62.7342,saint kitts and nevis,kn,13220,americas,latin america and the caribbean,caribbean
816,tórshavn,torshavn,62,-6.7833,faroe islands,fo,13326,europe,northern europe,
817,pago pago,pago pago,-14.274,-170.7046,american samoa,as,12576,oceania,polynesia,
818,valletta,valletta,35.8978,14.5125,malta,mt,6444,europe,southern europe,
819,gaza,gaza,31.5069,34.456,gaza strip,xg,,,,
820,grand turk,grand turk,21.4664,-71.136,turks and caicos islands,tc,5801,americas,latin america and the caribbean,caribbean
821,palikir,palikir,6.9178,158.185,federated states of micronesia,fm,6227,oceania,micronesia,
822,funafuti,funafuti,-8.5243,179.1942,tuvalu,tv,6025,oceania,polynesia,
823,vaduz,vaduz,47.1397,9.5219,liechtenstein,li,5668,europe,western europe,
824,lobamba,lobamba,-26.4465,31.2064,swaziland,sz,5800,africa,sub-saharan africa,southern africa
825,avarua,avarua,-21.207,-159.771,cook islands,ck,5445,oceania,polynesia,
826,saint george’s,saint george's,12.0444,-61.7417,grenada,gd,4315,americas,latin america and the caribbean,caribbean
827,san marino,san marino,43.932,12.4484,san marino,sm,4040,europe,southern europe,
828,al quds,al quds,31.7764,35.2269,west bank,xw,,,,
829,capitol hill,capitol hill,15.2137,145.7546,northern mariana islands,mp,2500,oceania,micronesia,
830,stanley,stanley,-51.7,-57.85,falkland islands (islas malvinas),fk,2213,americas,latin america and the caribbean,south america
831,vatican city,vatican city,41.9033,12.4534,vatican city,va,825,europe,southern europe,
832,alofi,alofi,-19.056,-169.921,niue,nu,1611,oceania,polynesia,
833,basse-terre,basse-terre,16.0104,-61.7055,guadeloupe,gp,307,americas,latin america and the caribbean,caribbean
834,hagåtña,hagta,13.4745,144.7504,guam,gu,1051,oceania,micronesia,
835,marigot,marigot,18.0706,-63.0847,saint martin,mf,,americas,latin america and the caribbean,caribbean
836,jamestown,jamestown,-15.9251,-5.7179,"saint helena, ascension, and tristan da cunha",sh,714,africa,sub-saharan africa,western africa
837,brades,brades,16.7928,-62.2106,montserrat,ms,391,americas,latin america and the caribbean,caribbean
838,philipsburg,philipsburg,18.0256,-63.0492,sint maarten,sx,,americas,latin america and the caribbean,caribbean
839,yaren,yaren,-0.5477,166.9209,nauru,nr,,oceania,micronesia,
840,pristina,pristina,42.6633,21.1622,kosovo,xk,,,,
841,gustavia,gustavia,17.8958,-62.8508,saint barthelemy,bl,,americas,latin america and the caribbean,caribbean
842,road town,road town,18.4167,-64.6167,british virgin islands,vg,,americas,latin america and the caribbean,caribbean
843,ngerulmud,ngerulmud,7.5006,134.6242,palau,pw,271,oceania,micronesia,
844,saint-pierre,saint-pierre,46.7811,-56.1764,saint pierre and miquelon,pm,,americas,northern america,
845,the valley,the valley,18.2167,-63.05,anguilla,ai,,americas,latin america and the caribbean,caribbean
846,mata-utu,mata-utu,-13.2825,-176.1736,wallis and futuna,wf,,oceania,polynesia,
847,kingston,kingston,-29.0569,167.9617,norfolk island,nf,,oceania,australia and new zealand,
848,longyearbyen,longyearbyen,78.2167,15.6333,svalbard,xr,,,,
849,tifariti,tifariti,26.0928,-10.6089,morocco,ma,,africa,northern africa,
850,adamstown,adamstown,-25.0667,-130.0833,pitcairn islands,pn,,oceania,polynesia,
851,flying fish cove,flying fish cove,-10.4167,105.7167,christmas island,cx,,oceania,australia and new zealand,
852,king edward point,king edward point,-54.2833,-36.5,south georgia and south sandwich islands,gs,,americas,latin america and the caribbean,south america
853,bareilly,bareilly,28.364,79.415,india,in,1000000,asia,southern asia,
854,quảng hà,quang ha,16.06,108.25,vietnam,vn,1000000,asia,south-eastern asia,
855,xingcheng,xingcheng,24.1681,115.6669,china,cn,993000,asia,eastern asia,
856,dongtai,dongtai,32.8534,120.3037,china,cn,990306,asia,eastern asia,
857,al manşūrah,al mansurah,31.05,31.3833,egypt,eg,960423,africa,northern africa,
858,yingcheng,yingcheng,24.1878,113.4042,china,cn,986400,asia,eastern asia,
859,chiba,chiba,35.6073,140.1064,japan,jp,981738,asia,eastern asia,
860,pekanbaru,pekanbaru,0.5333,101.45,indonesia,id,983356,asia,south-eastern asia,
861,luocheng,luocheng,22.7645,111.5745,china,cn,984100,asia,eastern asia,
862,dnipro,dnipro,48.4675,35.04,ukraine,ua,980948,europe,eastern europe,
863,danyang,danyang,31.9948,119.575,china,cn,980662,asia,eastern asia,
864,natal,natal,-6.9838,-60.2699,brazil,br,980588,americas,latin america and the caribbean,south america
865,nada,nada,19.5,109.5833,china,cn,977700,asia,eastern asia,
866,zamboanga city,zamboanga city,6.9167,122.0833,philippines,ph,977234,asia,south-eastern asia,
867,kirkuk,kirkuk,35.4667,44.4,iraq,iq,975000,asia,western asia,
868,naples,naples,40.8333,14.25,italy,it,966144,europe,southern europe,
869,wuchuan,wuchuan,21.4283,110.7749,china,cn,972400,asia,eastern asia,
870,huilong,huilong,31.8131,121.6574,china,cn,972525,asia,eastern asia,
871,oklahoma city,oklahoma city,35.4676,-97.5136,united states,us,972943,americas,northern america,
872,morelia,morelia,19.7683,-101.1894,mexico,mx,962555,americas,latin america and the caribbean,central america
873,cebu city,cebu city,10.293,123.902,philippines,ph,964169,asia,south-eastern asia,
874,shaoxing,shaoxing,30,120.5833,china,cn,961200,asia,eastern asia,
875,coimbatore,coimbatore,11,76.9667,india,in,959823,asia,southern asia,
876,santo domingo este,santo domingo este,18.4855,-69.8734,dominican republic,do,948855,americas,latin america and the caribbean,caribbean
877,setagaya,setagaya,35.6464,139.6533,japan,jp,940509,asia,eastern asia,
878,sŏngnam,songnam,37.4386,127.1378,south korea,kr,948757,asia,eastern asia,
879,taishan,taishan,22.2486,112.785,china,cn,953900,asia,eastern asia,
880,fangchenggang,fangchenggang,21.6,108.3,china,cn,953300,asia,eastern asia,
881,solāpur,solapur,17.6715,75.9104,india,in,951558,asia,southern asia,
882,tangier,tangier,35.7767,-5.8039,morocco,ma,947952,africa,northern africa,
883,anqiu,anqiu,36.3619,119.1072,china,cn,947723,asia,eastern asia,
884,feicheng,feicheng,36.186,116.772,china,cn,946627,asia,eastern asia,
885,kermānshāh,kermanshah,34.3167,47.0686,iran,ir,945651,asia,southern asia,
886,kitakyūshū,kitakyushu,33.8833,130.8833,japan,jp,935084,asia,eastern asia,
887,meishan,meishan,34.1736,112.839,china,cn,936000,asia,eastern asia,
888,khartoum north,khartoum north,15.6333,32.6333,sudan,sd,936349,africa,northern africa,
889,kisangani,kisangani,0.5153,25.1911,congo (kinshasa),cd,935977,africa,sub-saharan africa,middle africa
890,aguascalientes,aguascalientes,21.876,-102.296,mexico,mx,934424,americas,latin america and the caribbean,central america
891,marrakech,marrakech,31.6295,-7.9811,morocco,ma,928850,africa,northern africa,
892,donetsk,donetsk,48.0089,37.8042,ukraine,ua,929063,europe,eastern europe,
893,trujillo,trujillo,-8.1119,-79.0289,peru,pe,919899,americas,latin america and the caribbean,south america
894,taihe,taihe,30.8706,105.3784,china,cn,924531,asia,eastern asia,
895,bridgeport,bridgeport,41.1918,-73.1953,united states,us,924449,americas,northern america,
896,trichinopoly,trichinopoly,10.8269,78.6928,india,in,916857,asia,southern asia,
897,xin’an,xin'an,34.3662,118.3369,china,cn,920628,asia,eastern asia,
898,taihecun,taihecun,45.768,131.0063,china,cn,920471,asia,eastern asia,
899,naucalpan de juárez,naucalpan de juarez,19.4753,-99.2378,mexico,mx,913681,americas,latin america and the caribbean,central america
900,owerri,owerri,5.4833,7.0333,nigeria,ng,908109,africa,sub-saharan africa,western africa
901,padang,padang,-0.9556,100.3606,indonesia,id,914970,asia,south-eastern asia,
902,qingzhou,qingzhou,36.6967,118.4797,china,cn,914047,asia,eastern asia,
903,buffalo,buffalo,42.9016,-78.8487,united states,us,914341,americas,northern america,
904,lichuan,lichuan,30.2965,108.9378,china,cn,913700,asia,eastern asia,
905,daye,daye,30.1003,114.9699,china,cn,909724,asia,eastern asia,
906,fort worth,fort worth,32.7811,-97.3473,united states,us,909585,americas,northern america,
907,hengzhou,hengzhou,22.6896,109.2674,china,cn,908400,asia,eastern asia,
908,campo grande,campo grande,-20.4686,-54.6222,brazil,br,906092,americas,latin america and the caribbean,south america
909,zhuanghe,zhuanghe,39.6896,122.9664,china,cn,905852,asia,eastern asia,
910,hartford,hartford,41.7661,-72.6834,united states,us,905152,americas,northern america,
911,bobo-dioulasso,bobo-dioulasso,11.1833,-4.2833,burkina faso,bf,903887,africa,sub-saharan africa,western africa
912,ad dammām,ad dammam,26.4333,50.1,saudi arabia,sa,903312,asia,western asia,
913,lhasa,lhasa,29.6458,91.1408,china,cn,902500,asia,eastern asia,
914,jiaozhou,jiaozhou,36.2481,119.9625,china,cn,900500,asia,eastern asia,
915,taguig city,taguig city,14.5167,121.05,philippines,ph,886722,asia,south-eastern asia,
916,mérida,merida,20.97,-89.62,mexico,mx,892363,americas,latin america and the caribbean,central america
917,yangchun,yangchun,22.1717,111.7846,china,cn,891800,asia,eastern asia,
918,bucheon,bucheon,37.4989,126.7831,south korea,kr,867678,asia,eastern asia,
919,dengtalu,dengtalu,36.0819,114.3481,china,cn,887000,asia,eastern asia,
920,antipolo,antipolo,14.5842,121.1763,philippines,ph,887399,asia,south-eastern asia,
921,hubli,hubli,15.3619,75.1231,india,in,890000,asia,southern asia,
922,abeokuta,abeokuta,7.15,3.35,nigeria,ng,888924,africa,sub-saharan africa,western africa
923,cancún,cancun,21.1606,-86.8475,mexico,mx,888797,americas,latin america and the caribbean,central america
924,tucson,tucson,32.1545,-110.8782,united states,us,888486,americas,northern america,
925,krasnodar,krasnodar,45.0333,38.9833,russia,ru,881476,europe,eastern europe,
926,natal,natal,-5.795,-35.2089,brazil,br,877662,americas,latin america and the caribbean,south america
927,chihuahua,chihuahua,28.6353,-106.0889,mexico,mx,878062,americas,latin america and the caribbean,central america
928,klang,klang,3.0333,101.45,malaysia,my,878000,asia,south-eastern asia,
929,turin,turin,45.0667,7.7,italy,it,870952,europe,southern europe,
930,ar ramādī,ar ramadi,33.4258,43.2992,iraq,iq,874543,asia,western asia,
931,laiyang,laiyang,36.9758,120.7136,china,cn,874127,asia,eastern asia,
932,sale,sale,34.05,-6.8167,morocco,ma,850403,africa,northern africa,
933,jalandhar,jalandhar,31.3256,75.5792,india,in,873725,asia,southern asia,
934,kaifeng chengguanzhen,kaifeng chengguanzhen,34.8519,114.3481,china,cn,872000,asia,eastern asia,
935,ikeja,ikeja,6.6186,3.3426,nigeria,ng,861300,africa,sub-saharan africa,western africa
936,malang,malang,-7.98,112.62,indonesia,id,866118,asia,south-eastern asia,
937,marseille,marseille,43.2964,5.37,france,fr,868277,europe,western europe,
938,saltillo,saltillo,25.4333,-101,mexico,mx,864431,americas,latin america and the caribbean,central america
939,gaomi,gaomi,36.3833,119.75,china,cn,868715,asia,eastern asia,
940,ipoh,ipoh,4.6,101.07,malaysia,my,866772,asia,south-eastern asia,
941,hai’an,hai'an,32.532,120.4604,china,cn,866337,asia,eastern asia,
942,oran,oran,35.6969,-0.6331,algeria,dz,852000,africa,northern africa,
943,hermosillo,hermosillo,29.0989,-110.9542,mexico,mx,855563,americas,latin america and the caribbean,central america
944,weichanglu,weichanglu,37.1792,119.9333,china,cn,859424,asia,eastern asia,
945,shache,shache,38.4261,77.25,china,cn,851374,asia,eastern asia,
946,leping,leping,28.9632,117.1203,china,cn,852800,asia,eastern asia,
947,hailun,hailun,47.4585,126.9632,china,cn,850000,asia,eastern asia,
948,macheng,macheng,31.1817,115.0189,china,cn,849090,asia,eastern asia,
949,akure,akure,7.25,5.195,nigeria,ng,847903,africa,sub-saharan africa,western africa
950,ilorin,ilorin,8.5,4.55,nigeria,ng,847582,africa,sub-saharan africa,western africa
951,teresina,teresina,-5.0949,-42.8042,brazil,br,847430,americas,latin america and the caribbean,south america
952,yuci,yuci,37.6823,112.7281,china,cn,840000,asia,eastern asia,
953,omaha,omaha,41.2627,-96.0522,united states,us,847819,americas,northern america,
954,saratov,saratov,51.5333,46,russia,ru,845300,europe,eastern europe,
955,erbil,erbil,36.1911,44.0094,iraq,iq,846000,asia,western asia,
956,iguaçu,iguacu,-22.74,-43.47,brazil,br,844583,americas,latin america and the caribbean,south america
957,el paso,el paso,31.8479,-106.4309,united states,us,843386,americas,northern america,
958,pasig city,pasig city,14.575,121.0833,philippines,ph,803159,asia,south-eastern asia,
959,denpasar,denpasar,-8.6667,115.2167,indonesia,id,834881,asia,south-eastern asia,
960,dehui,dehui,44.5323,125.6965,china,cn,839786,asia,eastern asia,
961,bhubaneshwar,bhubaneshwar,20.2644,85.8281,india,in,837737,asia,southern asia,
962,tongchuan,tongchuan,34.9057,108.9422,china,cn,834437,asia,eastern asia,
963,cheongju,cheongju,36.6372,127.4897,south korea,kr,833276,asia,eastern asia,
964,warri,warri,5.5167,5.75,nigeria,ng,830106,africa,sub-saharan africa,western africa
965,pointe-noire,pointe-noire,-4.7889,11.8653,congo (brazzaville),cg,829134,africa,sub-saharan africa,middle africa
966,sakai,sakai,34.5667,135.4833,japan,jp,823523,asia,eastern asia,
967,rongjiawan,rongjiawan,29.1409,113.1087,china,cn,826000,asia,eastern asia,
968,butterworth,butterworth,5.3992,100.3639,malaysia,my,821652,asia,south-eastern asia,
969,renqiu,renqiu,38.7094,116.1008,china,cn,822455,asia,eastern asia,
970,honolulu,honolulu,21.3294,-157.846,united states,us,820987,americas,northern america,
971,xindi,xindi,29.8182,113.4653,china,cn,819446,asia,eastern asia,
972,wu’an,wu'an,36.6941,114.1847,china,cn,819000,asia,eastern asia,
973,são bernardo do campo,sao bernardo do campo,-23.6939,-46.565,brazil,br,816925,americas,latin america and the caribbean,south america
974,gaoyou,gaoyou,32.7847,119.4432,china,cn,811800,asia,eastern asia,
975,culiacán,culiacan,24.8069,-107.3939,mexico,mx,808416,americas,latin america and the caribbean,central america
976,hejian,hejian,38.4451,116.0897,china,cn,810306,asia,eastern asia,
977,yiyang,yiyang,26.4103,112.3913,china,cn,810447,asia,eastern asia,
978,puxi,puxi,35.2125,114.735,china,cn,809535,asia,eastern asia,
979,zijinglu,zijinglu,34.7513,112.9854,china,cn,807857,asia,eastern asia,
980,joão pessoa,joao pessoa,-7.12,-34.88,brazil,br,801718,americas,latin america and the caribbean,south america
981,mcallen,mcallen,26.2273,-98.2471,united states,us,804114,americas,northern america,
982,querétaro,queretaro,20.5875,-100.3928,mexico,mx,801940,americas,latin america and the caribbean,central america
983,abaeté,abaete,-19.1583,-45.4522,brazil,br,800000,americas,latin america and the caribbean,south america
984,palermo,palermo,2.8883,-75.4339,colombia,co,800000,americas,latin america and the caribbean,south america
985,qingping,qingping,34.538,113.3796,china,cn,797200,asia,eastern asia,
986,valencia,valencia,39.47,-0.3764,spain,es,789744,europe,southern europe,
987,niigata,niigata,37.9161,139.0364,japan,jp,790646,asia,eastern asia,
988,leeds,leeds,53.7997,-1.5492,united kingdom,gb,789194,europe,northern europe,
989,morādābād,moradabad,28.8437,78.7548,india,in,787000,asia,southern asia,
990,hamamatsu,hamamatsu,34.7167,137.7333,japan,jp,788211,asia,eastern asia,
991,xiangxiang,xiangxiang,27.7389,112.5223,china,cn,787216,asia,eastern asia,
992,chaohucun,chaohucun,31.6783,117.7353,china,cn,782000,asia,eastern asia,
993,fuyang,fuyang,30.0553,119.95,china,cn,771000,asia,eastern asia,
994,homs,homs,34.7333,36.7167,syria,sy,775404,asia,western asia,
995,lubango,lubango,-14.9167,13.5,angola,ao,776249,africa,sub-saharan africa,middle africa
996,san luis potosí,san luis potosi,22.1511,-100.9761,mexico,mx,772828,americas,latin america and the caribbean,central america
997,cencheng,cencheng,22.9297,111.0186,china,cn,772113,asia,eastern asia,
998,dali,dali,25.7003,100.1564,china,cn,771128,asia,eastern asia,
999,hamhŭng,hamhung,39.9167,127.5333,north korea,kp,768551,asia,eastern asia,
1000,kraków,krakow,50.0614,19.9372,poland,pl,766739,europe,eastern europe,
1001,hempstead,hempstead,40.6629,-73.6089,united states,us,767417,americas,northern america,
1002,frankfurt,frankfurt,50.1136,8.6797,germany,de,764104,europe,western europe,
1003,al ‘ayn,al `ayn,24.2075,55.7447,united arab emirates,ae,766936,asia,western asia,
1004,songzi,songzi,30.1772,111.7732,china,cn,765911,asia,eastern asia,
1005,laixi,laixi,36.8667,120.5333,china,cn,762900,asia,eastern asia,
1006,bahawalpur,bahawalpur,29.3956,71.6722,pakistan,pk,762111,asia,southern asia,
1007,zhongba,zhongba,31.7761,104.7406,china,cn,762140,asia,eastern asia,
1008,kaduna,kaduna,10.5105,7.4165,nigeria,ng,760084,africa,sub-saharan africa,western africa
1009,qingnian,qingnian,36.8494,115.7061,china,cn,760781,asia,eastern asia,
1010,albuquerque,albuquerque,35.1053,-106.6464,united states,us,761195,americas,northern america,
1011,xinhualu,xinhualu,34.3962,113.7249,china,cn,758079,asia,eastern asia,
1012,nerima,nerima,35.75,139.6167,japan,jp,742463,asia,eastern asia,
1013,guangshui,guangshui,31.6189,113.8229,china,cn,755910,asia,eastern asia,
1014,tlajomulco de zúñiga,tlajomulco de zuniga,20.4736,-103.4431,mexico,mx,727750,americas,latin america and the caribbean,central america
1015,samarinda,samarinda,-0.5022,117.1536,indonesia,id,753370,asia,south-eastern asia,
1016,pietermaritzburg,pietermaritzburg,-29.6009,30.3796,south africa,za,750845,africa,sub-saharan africa,southern africa
1017,changhua,changhua,24.0667,120.5333,taiwan,tw,750000,asia,eastern asia,
1018,kolhāpur,kolhapur,16.7,74.2333,india,in,750000,asia,southern asia,
1019,sizhan,sizhan,39.0099,106.3694,china,cn,751389,asia,eastern asia,
1020,ciudad guayana,ciudad guayana,8.3596,-62.6517,venezuela,ve,751331,americas,latin america and the caribbean,south america
1021,cúcuta,cucuta,7.9075,-72.5047,colombia,co,750000,americas,latin america and the caribbean,south america
1022,licheng,licheng,31.4174,119.4786,china,cn,749522,asia,eastern asia,
1023,ōta-ku,ota-ku,35.5614,139.7161,japan,jp,737187,asia,eastern asia,
1024,thiruvananthapuram,thiruvananthapuram,8.5,76.8997,india,in,743691,asia,southern asia,
1025,tyumen,tyumen,57.15,65.5333,russia,ru,744554,europe,eastern europe,
1026,nampula,nampula,-15.1167,39.2667,mozambique,mz,743000,africa,sub-saharan africa,eastern africa
1027,zaporizhzhia,zaporizhzhia,47.8378,35.1383,ukraine,ua,741717,europe,eastern europe,
1028,chengguan,chengguan,35.5256,113.6976,china,cn,740435,asia,eastern asia,
1029,kumamoto,kumamoto,32.8031,130.7078,japan,jp,738385,asia,eastern asia,
1030,nehe,nehe,48.48,124.8738,china,cn,740000,asia,eastern asia,
1031,birmingham,birmingham,33.5277,-86.7987,united states,us,739573,americas,northern america,
1032,zunhua,zunhua,40.1881,117.9593,china,cn,737011,asia,eastern asia,
1033,valenzuela,valenzuela,14.7,120.9833,philippines,ph,714978,asia,south-eastern asia,
1034,orūmīyeh,orumiyeh,37.5486,45.0675,iran,ir,736224,asia,southern asia,
1035,wugang,wugang,26.7345,110.6293,china,cn,734870,asia,eastern asia,
1036,osogbo,osogbo,7.7597,4.5761,nigeria,ng,731000,africa,sub-saharan africa,western africa
1037,shuangqiao,shuangqiao,35.0833,112.5833,china,cn,733000,asia,eastern asia,
1038,comodoro rivadavia,comodoro rivadavia,-45.8667,-67.5,argentina,ar,730266,americas,latin america and the caribbean,south america
1039,cagayan de oro,cagayan de oro,8.4833,124.65,philippines,ph,728402,asia,south-eastern asia,
1040,langzhong,langzhong,31.5504,105.9938,china,cn,728935,asia,eastern asia,
1041,qian’an,qian'an,40.0059,118.6973,china,cn,728160,asia,eastern asia,
1042,lviv,lviv,49.8419,24.0315,ukraine,ua,724314,europe,eastern europe,
1043,zouping,zouping,36.8625,117.7424,china,cn,726722,asia,eastern asia,
1044,an najaf,an najaf,32.029,44.3396,iraq,iq,724700,asia,western asia,
1045,sagamihara,sagamihara,35.5667,139.3667,japan,jp,722973,asia,eastern asia,
1046,sarasota,sarasota,27.3386,-82.5431,united states,us,722243,americas,northern america,
1047,mississauga,mississauga,43.6,-79.65,canada,ca,721599,americas,northern america,
1048,okayama,okayama,34.65,133.9167,japan,jp,720043,asia,eastern asia,
1049,anlu,anlu,31.2575,113.6783,china,cn,720000,asia,eastern asia,
1050,dayton,dayton,39.7797,-84.1998,united states,us,718353,americas,northern america,
1051,changsha,changsha,22.3762,112.6877,china,cn,717700,asia,eastern asia,
1052,torreón,torreon,25.5394,-103.4486,mexico,mx,716672,americas,latin america and the caribbean,central america
1053,shihezi,shihezi,44.3,86.0333,china,cn,717000,asia,eastern asia,
1054,george town,george town,5.4145,100.3292,malaysia,my,708127,asia,south-eastern asia,
1055,enugu,enugu,6.4403,7.4942,nigeria,ng,715774,africa,sub-saharan africa,western africa
1056,soledad,soledad,10.92,-74.77,colombia,co,698852,americas,latin america and the caribbean,south america
1057,jaboatão,jaboatao,-8.1803,-35.0014,brazil,br,702621,americas,latin america and the caribbean,south america
1058,yanggok,yanggok,37.6367,127.2142,south korea,kr,713321,asia,eastern asia,
1059,yatou,yatou,37.1653,122.4867,china,cn,714211,asia,eastern asia,
1060,santo andré,santo andre,-23.6572,-46.5333,brazil,br,710210,americas,latin america and the caribbean,south america
1061,xichang,xichang,27.8983,102.2706,china,cn,712434,asia,eastern asia,
1062,bhiwandi,bhiwandi,19.3,73.0667,india,in,709665,asia,southern asia,
1063,city of parañaque,city of paranaque,14.4667,121.0167,philippines,ph,689992,asia,south-eastern asia,
1064,dasmariñas,dasmarinas,14.3294,120.9367,philippines,ph,703141,asia,south-eastern asia,
1065,chengxiang,chengxiang,31.4515,121.1043,china,cn,709500,asia,eastern asia,
1066,sahāranpur,saharanpur,29.964,77.546,india,in,705478,asia,southern asia,
1067,warangal,warangal,17.9756,79.6011,india,in,704570,asia,southern asia,
1068,edogawa,edogawa,35.6924,139.8757,japan,jp,690457,asia,eastern asia,
1069,osasco,osasco,-23.5328,-46.7919,brazil,br,694844,americas,latin america and the caribbean,south america
1070,dashiqiao,dashiqiao,40.6328,122.5021,china,cn,704891,asia,eastern asia,
1071,latakia,latakia,35.5236,35.7917,syria,sy,700000,asia,western asia,
1072,rochester,rochester,43.168,-77.6162,united states,us,703952,americas,northern america,
1073,fresno,fresno,36.7831,-119.7941,united states,us,703498,americas,northern america,
1074,banjarmasin,banjarmasin,-3.319,114.5921,indonesia,id,692793,asia,south-eastern asia,
1075,salem,salem,11.65,78.1667,india,in,693236,asia,southern asia,
1076,general santos,general santos,6.1167,125.1667,philippines,ph,697315,asia,south-eastern asia,
1077,ḩamāh,hamah,35.1333,36.75,syria,sy,696863,asia,western asia,
1078,bacoor,bacoor,14.4624,120.9645,philippines,ph,664625,asia,south-eastern asia,
1079,shishi,shishi,24.7355,118.6434,china,cn,693000,asia,eastern asia,
1080,guadalupe,guadalupe,25.6775,-100.2597,mexico,mx,691931,americas,latin america and the caribbean,central america
1081,adachi,adachi,35.7833,139.8,japan,jp,682326,asia,eastern asia,
1082,qianxi,qianxi,27.0284,106.0327,china,cn,695947,asia,eastern asia,
1083,tolyatti,tolyatti,53.5167,49.4167,russia,ru,693072,europe,eastern europe,
1084,macau,macau,22.203,113.545,macau,mo,568700,asia,eastern asia,
1085,bauchi,bauchi,10.3158,9.8442,nigeria,ng,693700,africa,sub-saharan africa,western africa
1086,hamilton,hamilton,43.2567,-79.8692,canada,ca,693645,americas,northern america,
1087,łódź,lodz,51.7769,19.4547,poland,pl,690422,europe,eastern europe,
1088,miluo chengguanzhen,miluo chengguanzhen,28.8049,113.0745,china,cn,692080,asia,eastern asia,
1089,gaizhou,gaizhou,40.4019,122.3499,china,cn,691595,asia,eastern asia,
1090,mālegaon,malegaon,20.55,74.55,india,in,690844,asia,southern asia,
1091,karbalā’,karbala',32.6167,44.0333,iraq,iq,690100,asia,western asia,
1092,leling,leling,37.7333,117.2167,china,cn,689867,asia,eastern asia,
1093,são josé dos campos,sao jose dos campos,-23.1789,-45.8869,brazil,br,688597,americas,latin america and the caribbean,south america
1094,sevilla,sevilla,37.39,-5.99,spain,es,684234,europe,southern europe,
1095,jianshe,jianshe,34.2189,113.7693,china,cn,687130,asia,eastern asia,
1096,shizuoka,shizuoka,34.9756,138.3825,japan,jp,685589,asia,eastern asia,
1097,jingcheng,jingcheng,32.0058,120.2547,china,cn,684360,asia,eastern asia,
1098,kochi,kochi,9.9667,76.2833,india,in,677381,asia,southern asia,
1099,allentown,allentown,40.5961,-75.4756,united states,us,683794,americas,northern america,
1100,tasikmalaya,tasikmalaya,-7.3333,108.2,indonesia,id,678027,asia,south-eastern asia,
1101,rasht,rasht,37.2833,49.6,iran,ir,679995,asia,southern asia,
1102,xinmin,xinmin,41.9952,122.8224,china,cn,680000,asia,eastern asia,
1103,zhongshu,zhongshu,27.8116,106.4133,china,cn,679624,asia,eastern asia,
1104,xigazê,xigaze,29.2649,88.8799,china,cn,679771,asia,eastern asia,
1105,gorakhpur,gorakhpur,26.7611,83.3667,india,in,673446,asia,southern asia,
1106,as sulaymānīyah,as sulaymaniyah,35.55,45.4333,iraq,iq,676500,asia,western asia,
1107,zaragoza,zaragoza,41.65,-0.8833,spain,es,675301,europe,southern europe,
1108,acapulco de juárez,acapulco de juarez,16.8636,-99.8825,mexico,mx,673478,americas,latin america and the caribbean,central america
1109,bahār,bahar,34.9069,48.4414,iran,ir,673405,asia,southern asia,
1110,palermo,palermo,38.1111,13.3517,italy,it,668405,europe,southern europe,
1111,guankou,guankou,30.9933,103.624,china,cn,671200,asia,eastern asia,
1112,tulsa,tulsa,36.1284,-95.9042,united states,us,671033,americas,northern america,
1113,tlaquepaque,tlaquepaque,20.6167,-103.3167,mexico,mx,664193,americas,latin america and the caribbean,central america
1114,mazatlán,mazatlan,23.2167,-106.4167,mexico,mx,658354,americas,latin america and the caribbean,central america
1115,songyang,songyang,34.4603,113.028,china,cn,668592,asia,eastern asia,
1116,cape coral,cape coral,26.6446,-81.9956,united states,us,668382,americas,northern america,
1117,ch’ŏngjin,ch'ongjin,41.8,129.7831,north korea,kp,667929,asia,eastern asia,
1118,puyang chengguanzhen,puyang chengguanzhen,35.7004,114.98,china,cn,666322,asia,eastern asia,
1119,qionghu,qionghu,28.8417,112.3595,china,cn,667104,asia,eastern asia,
1120,ribeirão prêto,ribeirao preto,-21.1783,-47.8067,brazil,br,666323,americas,latin america and the caribbean,south america
1121,zhaodong,zhaodong,46.0635,125.9773,china,cn,666532,asia,eastern asia,
1122,huambo,huambo,-12.7667,15.7333,angola,ao,665564,africa,sub-saharan africa,middle africa
1123,wenchang,wenchang,31.054,116.9507,china,cn,664455,asia,eastern asia,
1124,shulan,shulan,44.4079,126.9429,china,cn,663403,asia,eastern asia,
1125,tlalnepantla,tlalnepantla,19.5367,-99.1947,mexico,mx,653410,americas,latin america and the caribbean,central america
1126,catia la mar,catia la mar,10.6038,-67.0303,venezuela,ve,661897,americas,latin america and the caribbean,south america
1127,sargodha,sargodha,32.0836,72.6711,pakistan,pk,659862,asia,southern asia,
1128,al hufūf,al hufuf,25.3608,49.5997,saudi arabia,sa,660788,asia,western asia,
1129,durango,durango,24.0167,-104.6667,mexico,mx,654876,americas,latin america and the caribbean,central america
1130,jalingo,jalingo,8.9195,11.3264,nigeria,ng,660213,africa,sub-saharan africa,western africa
1131,bouaké,bouake,7.6833,-5.0331,côte d'ivoire,ci,659233,africa,sub-saharan africa,western africa
1132,sialkot city,sialkot city,32.5,74.5333,pakistan,pk,655852,asia,southern asia,
1133,san jose del monte,san jose del monte,14.8139,121.0453,philippines,ph,651813,asia,south-eastern asia,
1134,ansan,ansan,37.3236,126.8219,south korea,kr,652800,asia,eastern asia,
1135,lingbao chengguanzhen,lingbao chengguanzhen,34.5221,110.8786,china,cn,656571,asia,eastern asia,
1136,hwasu-dong,hwasu-dong,37.2,126.7667,south korea,kr,655350,asia,eastern asia,
1137,huế,hue,16.4637,107.5908,vietnam,vn,652572,asia,south-eastern asia,
1138,shimoga,shimoga,13.9167,75.5667,india,in,654055,asia,southern asia,
1139,bulawayo,bulawayo,-20.1667,28.5667,zimbabwe,zw,653337,africa,sub-saharan africa,eastern africa
1140,xiping,xiping,25.6005,103.8166,china,cn,652604,asia,eastern asia,
1141,sanhe,sanhe,39.9808,117.0701,china,cn,652042,asia,eastern asia,
1142,guntūr,guntur,16.3,80.45,india,in,647508,asia,southern asia,
1143,concord,concord,37.9722,-122.0016,united states,us,652308,americas,northern america,
1144,contagem,contagem,-19.9319,-44.0539,brazil,br,648766,americas,latin america and the caribbean,south america
1145,tiruppūr,tiruppur,11.1075,77.3398,india,in,650000,asia,southern asia,
1146,ch’ŏnan,ch'onan,36.8064,127.1522,south korea,kr,651661,asia,eastern asia,
1147,tripoli,tripoli,34.4333,35.8333,lebanon,lb,530000,asia,western asia,
1148,honchō,honcho,35.6947,139.9825,japan,jp,641499,asia,eastern asia,
1149,düsseldorf,dusseldorf,51.2311,6.7724,germany,de,645923,europe,western europe,
1150,izhevsk,izhevsk,56.85,53.2167,russia,ru,646277,europe,eastern europe,
1151,guixi,guixi,28.2861,117.2083,china,cn,647240,asia,eastern asia,
1152,sorocaba,sorocaba,-23.5019,-47.4578,brazil,br,644919,americas,latin america and the caribbean,south america
1153,petaling jaya,petaling jaya,3.1073,101.6067,malaysia,my,638516,asia,south-eastern asia,
1154,tengyue,tengyue,25.0208,98.4972,china,cn,644765,asia,eastern asia,
1155,wuxue,wuxue,29.8518,115.5539,china,cn,644247,asia,eastern asia,
1156,kikwit,kikwit,-5.0333,18.8167,congo (kinshasa),cd,637736,africa,sub-saharan africa,middle africa
1157,colorado springs,colorado springs,38.8674,-104.7606,united states,us,642413,americas,northern america,
1158,qufu,qufu,35.6,116.9833,china,cn,640498,asia,eastern asia,
1159,gaobeidian,gaobeidian,39.3257,115.8678,china,cn,640280,asia,eastern asia,
1160,ruiming,ruiming,25.8833,116.0333,china,cn,640600,asia,eastern asia,
1161,wrocław,wroclaw,51.11,17.0325,poland,pl,638586,europe,eastern europe,
1162,gold coast,gold coast,-28.0167,153.4,australia,au,638090,oceania,australia and new zealand,
1163,xinshi,xinshi,31.0236,113.1079,china,cn,636776,asia,eastern asia,
1164,ta‘izz,ta`izz,13.5789,44.0219,yemen,ye,615467,asia,western asia,
1165,aracaju,aracaju,-10.9167,-37.05,brazil,br,632744,americas,latin america and the caribbean,south america
1166,cochabamba,cochabamba,-17.3935,-66.157,bolivia,bo,632013,americas,latin america and the caribbean,south america
1167,jeonju,jeonju,35.8219,127.1489,south korea,kr,631532,asia,eastern asia,
1168,jin’e,jin'e,29.3395,105.2868,china,cn,633210,asia,eastern asia,
1169,barnaul,barnaul,53.3567,83.7872,russia,ru,633301,europe,eastern europe,
1170,makati city,makati city,14.55,121.0333,philippines,ph,629616,asia,south-eastern asia,
1171,stuttgart,stuttgart,48.7761,9.1775,germany,de,630305,europe,western europe,
1172,rotterdam,rotterdam,51.9225,4.4792,netherlands,nl,631155,europe,western europe,
1173,changping,changping,40.2248,116.1944,china,cn,614821,asia,eastern asia,
1174,benghazi,benghazi,32.1167,20.0667,libya,ly,631555,africa,northern africa,
1175,kryvyi rih,kryvyi rih,47.9086,33.3433,ukraine,ua,629695,europe,eastern europe,
1176,raurkela,raurkela,22.2492,84.8828,india,in,625831,asia,southern asia,
1177,ḩalwān,halwan,29.8419,31.3342,egypt,eg,619293,africa,northern africa,
1178,charleston,charleston,32.8153,-79.9628,united states,us,628377,americas,northern america,
1179,chimalhuacán,chimalhuacan,19.4167,-98.9,mexico,mx,614453,americas,latin america and the caribbean,central america
1180,xinxing,xinxing,39.8734,124.1453,china,cn,627475,asia,eastern asia,
1181,suohe,suohe,34.7879,113.392,china,cn,626700,asia,eastern asia,
1182,mangalore,mangalore,12.8703,74.8806,india,in,623841,asia,southern asia,
1183,zhuangyuan,zhuangyuan,37.3056,120.8275,china,cn,626683,asia,eastern asia,
1184,glasgow,glasgow,55.8611,-4.25,united kingdom,gb,626410,europe,northern europe,
1185,namangan,namangan,40.9953,71.6725,uzbekistan,uz,626120,asia,central asia,
1186,ulyanovsk,ulyanovsk,54.3167,48.3667,russia,ru,624518,europe,eastern europe,
1187,irkutsk,irkutsk,52.2833,104.3,russia,ru,623736,europe,eastern europe,
1188,nānded,nanded,19.17,77.3,india,in,623708,asia,southern asia,
1189,jos,jos,9.9333,8.8833,nigeria,ng,622802,africa,sub-saharan africa,western africa
1190,pontianak,pontianak,-0.0206,109.3414,indonesia,id,618388,asia,south-eastern asia,
1191,villa nueva,villa nueva,14.5314,-90.5964,guatemala,gt,618397,americas,latin america and the caribbean,central america
1192,bazhou,bazhou,39.1235,116.386,china,cn,622975,asia,eastern asia,
1193,springfield,springfield,42.1155,-72.5395,united states,us,623401,americas,northern america,
1194,turpan,turpan,42.95,89.1822,china,cn,622903,asia,eastern asia,
1195,las piñas city,las pinas city,14.45,120.9833,philippines,ph,606293,asia,south-eastern asia,
1196,meihekou,meihekou,42.5279,125.678,china,cn,618251,asia,eastern asia,
1197,jurong,jurong,31.9579,119.1595,china,cn,617706,asia,eastern asia,
1198,feira de santana,feira de santana,-12.2669,-38.9669,brazil,br,617528,americas,latin america and the caribbean,south america
1199,khabarovsk,khabarovsk,48.4833,135.0667,russia,ru,616242,europe,eastern europe,
1200,xinji,xinji,37.9423,115.2118,china,cn,615919,asia,eastern asia,
1201,serang,serang,-6.12,106.1503,indonesia,id,613356,asia,south-eastern asia,
